City_ID,City,Lat,Lng,Max Temp,Humidity,Cloudiness,Wind Speed,Country,Date
0,carnarvon,-24.8667,113.6333,300.11,54,46,7.47,AU,1736470663
1,okhotsk,59.3833,143.3,252.91,78,7,6.16,RU,1736470664
2,grytviken,-54.2811,-36.5092,278.08,97,100,1.4,GS,1736470665
3,ilawa,53.596,19.5685,278.66,95,100,6.75,PL,1736470667
4,isafjordur,66.0755,-23.124,271.23,88,47,4.72,IS,1736470668
5,kapa'a,22.0752,-159.319,298.41,85,75,7.2,US,1736470669
6,vilyuchinsk,52.9306,158.4028,262.3,69,0,3.01,RU,1736470670
7,adamstown,-25.066,-130.1015,296.32,84,100,12.46,PN,1736470671
8,yellowknife,62.456,-114.3525,250.68,92,75,5.66,CA,1736470672
9,college,64.8569,-147.8028,268.14,85,100,3.09,US,1736470673
10,punta arenas,-53.15,-70.9167,286.21,41,20,6.17,CL,1736470434
11,lorengau,-2.0226,147.2712,301.99,77,77,3.19,PG,1736470676
12,kristiansund,63.1115,7.732,270.51,86,75,1.54,NO,1736470677
13,mejit,10.2753,170.8646,300.09,80,20,8.7,MH,1736470678
14,keflavik,64.0049,-22.5624,274.39,69,75,5.66,IS,1736470679
15,torghay,49.6339,63.4981,261.16,78,29,4.33,KZ,1736470680
16,albany,42.6001,-73.9662,268.38,69,48,3.13,US,1736470520
17,la rinconada,37.4873,-5.9826,285.0,93,11,1.41,ES,1736470683
18,usinsk,65.9939,57.5281,264.31,95,100,6.35,RU,1736470684
19,port elizabeth,-33.918,25.5701,294.31,91,75,3.09,ZA,1736470685
20,orkney,-26.9802,26.6727,293.07,67,91,3.04,ZA,1736470687
21,argo,37.6333,22.7333,283.95,81,0,1.77,GR,1736470690
22,talnakh,69.4865,88.3972,246.75,96,28,2.82,RU,1736470692
23,blackmans bay,-43.0167,147.3167,301.22,47,61,3.45,AU,1736470693
24,edinburgh of the seven seas,-37.0676,-12.3116,291.0,95,100,6.54,SH,1736470694
25,colonia,50.9333,6.95,274.51,88,75,5.14,DE,1736470538
26,bethel,41.3712,-73.414,271.2,64,0,4.63,US,1736470676
27,vorgashor,67.5833,63.95,259.53,89,100,4.37,RU,1736470699
28,inisa,7.85,4.3333,294.79,24,1,1.26,NG,1736470700
29,tateyama,34.9833,139.8667,278.7,33,2,6.65,JP,1736470701
30,iskateley,67.6803,53.1512,263.49,94,100,4.93,RU,1736470702
31,sitka,57.0531,-135.33,282.09,81,100,11.83,US,1736470703
32,juneau,58.3019,-134.4197,281.15,95,100,10.29,US,1736470705
33,mana,5.6592,-53.7767,298.92,79,8,4.25,GF,1736470706
34,tocoa,15.6833,-86.0,297.94,98,100,0.54,HN,1736470707
35,ancud,-41.8697,-73.8203,284.95,68,0,2.36,CL,1736470708
36,happy valley-goose bay,53.3168,-60.3315,274.32,80,100,12.35,CA,1736470709
37,thompson,55.7435,-97.8558,254.24,78,75,4.63,CA,1736470710
38,muli,2.9167,73.5667,300.84,78,96,5.35,MV,1736470711
39,port-aux-francais,-49.35,70.2167,277.39,92,100,23.71,TF,1736470712
40,soio,-6.1349,12.3689,297.99,89,28,2.31,AO,1736470715
41,winters,38.5249,-121.9708,296.1,20,0,5.66,US,1736470716
42,holualoa,19.6228,-155.9522,298.06,78,40,3.6,US,1736470717
43,ribeira grande,38.5167,-28.7,291.37,88,75,5.14,PT,1736470718
44,margaret river,-33.95,115.0667,293.63,58,100,4.79,AU,1736470719
45,saurimo,-9.6608,20.3916,291.46,97,100,1.55,AO,1736470720
46,puerto natales,-51.7236,-72.4875,286.4,50,20,5.14,CL,1736470721
47,polyarnyy,69.1989,33.4478,266.27,95,100,5.19,RU,1736470723
48,harper,4.375,-7.7169,299.6,81,98,2.95,LR,1736470724
49,stanley,54.868,-1.6985,271.77,82,75,3.6,GB,1736470725
50,abu jibeha,11.4562,31.2285,294.28,24,5,3.23,SD,1736470726
51,saint-pierre,-21.3393,55.4781,297.97,69,0,1.54,RE,1736470727
52,ar rutbah,33.0381,40.2848,280.36,51,1,2.64,IQ,1736470728
53,yemetsk,63.4721,41.7941,261.42,85,15,3.72,RU,1736470729
54,palmer,42.1584,-72.3287,268.9,57,0,6.17,US,1736470730
55,vadso,70.0744,29.7487,264.24,86,62,6.69,NO,1736470732
56,chonchi,-42.6128,-73.8092,282.71,75,0,1.42,CL,1736470733
57,rosso,16.4986,-15.8153,296.42,16,0,5.19,SN,1736470734
58,afaahiti,-17.75,-149.2833,300.11,76,100,5.51,PF,1736470735
59,olonkinbyen,70.9221,-8.7187,264.69,83,100,11.98,SJ,1736470736
60,atafu village,-8.5421,-172.5159,301.31,72,100,7.75,TK,1736470737
61,waitangi,-43.9535,-176.5597,288.61,68,100,6.26,NZ,1736470739
62,meulaboh,4.1363,96.1285,298.29,82,88,1.53,ID,1736470741
63,lompoc,34.6391,-120.4579,289.09,48,0,3.09,US,1736470598
64,saipan,15.1355,145.701,303.54,81,40,5.14,MP,1736470743
65,jamaame,0.0697,42.745,297.31,82,100,5.03,SO,1736470744
66,alo,6.5486,4.2686,297.26,90,1,1.3,NG,1736470745
67,jamestown,42.097,-79.2353,264.95,86,100,3.09,US,1736470723
68,berezovyy,51.6667,135.7,258.54,76,3,0.63,RU,1736470748
69,west island,-12.1568,96.8225,298.14,94,100,1.03,CC,1736470749
70,wewak,-3.5534,143.6268,301.0,81,99,1.93,PG,1736470750
71,al ghayzah,16.2079,52.176,292.98,56,0,2.24,YE,1736470751
72,ulanhot,46.0833,122.0833,256.34,62,0,2.32,CN,1736470752
73,hawaiian paradise park,19.5933,-154.9731,299.88,77,20,3.09,US,1736470753
74,port lincoln,-34.7333,135.8667,295.22,56,8,4.62,AU,1736470755
75,anadyr,64.75,177.4833,242.59,74,20,7.0,RU,1736470756
76,ilulissat,69.2167,-51.1,245.73,88,10,3.09,GL,1736470757
77,avarua,-21.2078,-159.775,298.18,94,75,4.63,CK,1736470758
78,luderitz,-26.6481,15.1594,290.12,82,7,6.27,NA,1736470759
79,georgetown,5.4112,100.3354,301.11,76,20,3.09,MY,1736470740
80,yelizovo,53.1873,158.3805,262.23,48,0,3.0,RU,1736470761
81,lihue,21.9789,-159.3672,298.0,84,75,7.2,US,1736470762
82,bodaybo,57.8506,114.1933,239.52,98,28,0.46,RU,1736470764
83,arraial do cabo,-22.9661,-42.0278,297.2,80,87,4.69,BR,1736470765
84,ushuaia,-54.8,-68.3,283.96,62,40,8.75,AR,1736470766
85,nelson bay,-32.7167,152.15,299.32,85,100,5.36,AU,1736470565
86,remire-montjoly,4.9167,-52.2667,297.17,100,0,0.51,GF,1736470768
87,xai-xai,-25.0519,33.6442,297.45,93,99,1.98,MZ,1736470769
88,papatowai,-46.5619,169.4708,289.34,66,72,3.59,NZ,1736470770
89,vodnyy,63.5046,53.4095,263.5,90,100,5.25,RU,1736470771
90,villa gesell,-37.2639,-56.973,292.52,82,30,6.88,AR,1736470773
91,san antonio de pale,-1.4014,5.6325,299.98,80,100,2.08,GQ,1736470774
92,beloyarskiy,63.7119,66.6722,263.11,96,100,1.61,RU,1736470776
93,touros,-5.1989,-35.4608,299.62,82,10,4.0,BR,1736470777
94,lebu,-37.6167,-73.65,286.76,78,0,8.49,CL,1736470778
95,sarmiento,-45.5882,-69.07,292.51,25,2,2.69,AR,1736470616
96,chaiya,9.3862,99.1986,297.14,78,67,2.29,TH,1736470781
97,bom jesus,-9.0744,-44.3586,296.51,93,100,0.75,BR,1736470782
98,gaalkacyo,6.7697,47.4308,293.18,79,7,5.68,SO,1736470783
99,usogorsk,63.4106,48.6872,263.82,89,100,6.36,RU,1736470784
100,kailua-kona,19.6406,-155.9956,299.42,81,100,0.89,US,1736470785
101,fort mcmurray,56.7268,-111.381,263.92,85,100,4.12,CA,1736470647
102,magadan,59.5667,150.8,255.82,81,28,2.72,RU,1736470787
103,qaqortoq,60.7167,-46.0333,263.12,70,29,3.73,GL,1736470788
104,juan de ayolas,-27.4,-56.9,300.11,36,100,3.25,PY,1736470790
105,tosontsengel,48.7567,98.2839,251.68,100,100,0.91,MN,1736470791
106,alice springs,-23.7,133.8833,310.9,11,10,4.12,AU,1736470792
107,sinabang,2.4803,96.3801,299.91,82,100,1.1,ID,1736470793
108,hithadhoo,-0.6,73.0833,300.04,79,100,3.92,MV,1736470794
109,port mathurin,-19.6833,63.4167,299.11,89,77,10.55,MU,1736470514
110,la ronge,55.1001,-105.2842,256.29,78,20,1.54,CA,1736470796
111,nar'yan-mar,67.6713,53.087,263.45,94,100,4.86,RU,1736470797
112,prince albert,53.2001,-105.7677,264.12,67,0,4.12,CA,1736470799
113,huai yot,7.7893,99.6348,297.31,85,89,2.51,TH,1736470800
114,rio grande,-32.035,-52.0986,294.63,75,0,6.89,BR,1736470801
115,badger,64.8,-147.5333,268.1,89,0,3.09,US,1736470803
116,amga,60.8953,131.9608,240.56,99,94,0.82,RU,1736470805
117,iqaluit,63.7506,-68.5145,257.98,77,100,1.54,CA,1736470806
118,fada,7.25,4.0667,295.25,76,15,1.68,NG,1736470807
119,susuman,62.7833,148.1667,246.28,97,100,0.54,RU,1736470809
120,hammerfest,70.6634,23.6821,263.4,73,2,1.03,NO,1736470810
121,hakha,22.65,93.6167,281.26,77,2,0.78,MM,1736470811
122,suntar,62.1444,117.6319,254.03,97,100,2.02,RU,1736470812
123,tazacorte,28.629,-17.9293,289.9,43,0,4.47,ES,1736470813
124,mamuju,-2.6748,118.8885,301.93,64,100,0.74,ID,1736470814
125,ayr,55.4627,-4.6339,269.14,86,0,3.09,GB,1736470815
126,marka,1.7159,44.7717,297.15,84,97,7.62,SO,1736470816
127,bredasdorp,-34.5322,20.0403,291.37,88,19,2.24,ZA,1736470818
128,ribeira brava,32.65,-17.0667,289.89,82,100,1.02,PT,1736470819
129,uturoa,-16.7333,-151.4333,301.49,72,90,6.26,PF,1736470820
130,enewetak,11.3474,162.3373,300.46,81,5,9.68,MH,1736470821
131,santa elena de uairen,4.6167,-61.1333,296.14,52,65,2.55,VE,1736470823
132,tshabong,-26.05,22.45,298.82,20,100,3.71,BW,1736470824
133,ilheus,-14.7889,-39.0494,301.05,100,40,2.06,BR,1736470825
134,bilibino,68.0546,166.4372,245.75,98,100,1.03,RU,1736470827
135,petropavlovsk-kamchatsky,53.0452,158.6483,261.48,48,0,3.0,RU,1736470828
136,cobija,-11.0267,-68.7692,296.14,97,100,1.04,BO,1736470829
137,ulaangom,49.9811,92.0667,247.92,92,100,1.42,MN,1736470830
138,longyearbyen,78.2186,15.6401,271.06,93,100,7.2,SJ,1736470696
139,pisco,-13.7,-76.2167,294.18,78,0,8.23,PE,1736470832
140,dalbandin,28.8947,64.4101,280.93,50,100,2.33,PK,1736470833
141,whitehorse,60.7161,-135.0538,274.58,86,100,8.23,CA,1736470743
142,port alfred,-33.5906,26.891,292.69,92,0,1.79,ZA,1736470752
143,port saint john's,-31.6229,29.5448,295.69,89,1,1.98,ZA,1736470837
144,cill airne,52.05,-9.5167,274.67,85,100,3.95,IE,1736470838
145,kapuskasing,49.4169,-82.4331,265.15,79,100,3.6,CA,1736470839
146,isiro,2.7739,27.616,292.6,43,100,1.37,CD,1736470840
147,portland,45.5234,-122.6762,281.38,71,7,4.92,US,1736470800
148,xifeng,42.7372,124.7222,258.44,82,5,1.15,CN,1736470842
149,brandon,27.9378,-82.2859,282.07,66,0,2.06,US,1736470844
150,boyolangu,-8.1181,111.8935,298.54,87,100,0.85,ID,1736470845
151,kamenka,51.3223,42.7678,273.42,91,100,1.78,RU,1736470848
152,puerto cabezas,14.0351,-83.3888,295.15,82,100,3.5,NI,1736470849
153,surprise,33.6306,-112.3332,288.98,21,0,5.66,US,1736470838
154,jalai nur,49.45,117.7,247.9,92,94,0.87,CN,1736470853
155,alofi,-19.0595,-169.9187,299.09,89,100,3.6,NU,1736470856
156,quellon,-43.1167,-73.6167,284.08,75,0,4.38,CL,1736470858
157,tura,25.5198,90.2201,284.88,87,0,1.47,IN,1736470862
158,ust-nera,64.5667,143.2,240.46,99,82,1.12,RU,1736470864
159,paros,37.0833,25.15,289.43,94,6,1.03,GR,1736470866
160,eenhana,-17.4667,16.3333,295.74,38,21,3.19,NA,1736470867
161,sisimiut,66.9395,-53.6735,258.68,77,1,5.58,GL,1736470868
162,muravlenko,63.7898,74.523,259.5,94,100,11.87,RU,1736470870
163,choyr,46.3611,108.3611,250.94,87,82,0.37,MN,1736470871
164,eraan,9.0629,117.7016,301.34,77,100,1.76,PH,1736470872
165,geraldton,-28.7667,114.6,297.38,64,75,5.14,AU,1736470873
166,vorkuta,67.5,64.0,259.84,87,100,3.91,RU,1736470874
167,kodiak,57.79,-152.4072,276.34,87,100,3.42,US,1736470875
168,mirny,62.5353,113.9611,256.23,96,100,2.4,RU,1736470876
169,talwandi bhai,30.85,74.9333,279.95,35,66,1.06,IN,1736470877
170,beyneu,45.3167,55.2,270.44,62,1,4.18,KZ,1736470879
171,papao,-17.75,-149.55,302.97,78,100,7.41,PF,1736470880
172,tazovsky,67.4667,78.7,253.03,96,100,6.84,RU,1736470881
173,cabo san lucas,22.8909,-109.9124,293.57,54,100,2.89,MX,1736470882
174,swakopmund,-22.6833,14.5333,290.36,86,88,0.45,NA,1736470883
175,klyuchi,52.2667,79.1667,266.61,89,100,6.44,RU,1736470885
176,byron bay,-28.65,153.6167,298.39,68,100,2.4,AU,1736470886
177,st. john's,47.5649,-52.7093,273.69,87,100,7.2,CA,1736470854
178,codrington,-38.2667,141.9667,299.99,39,100,4.92,AU,1736470889
179,camana,-16.6228,-72.7111,294.22,85,69,2.85,PE,1736470891
180,qarqin,37.4185,66.0436,275.87,55,0,2.95,AF,1736470894
181,kayangel,8.0823,134.7173,302.18,73,30,8.23,PW,1736470897
182,saudarkrokur,65.7461,-19.6394,266.85,84,98,6.53,IS,1736470898
183,taltal,-25.4,-70.4833,293.35,82,12,2.24,CL,1736470901
184,buka,40.8108,69.1986,271.76,45,0,0.7,UZ,1736470902
185,al hawatah,13.4167,34.6333,296.87,21,0,5.32,SD,1736470903
186,las palmas,28.4204,-14.0131,288.59,88,20,4.12,ES,1736470713
187,sao vicente,-23.9631,-46.3919,298.12,26,88,2.24,BR,1736470906
188,barranca,-10.75,-77.7667,294.1,82,100,3.5,PE,1736470908
189,stolin,51.8912,26.846,281.28,80,100,5.12,BY,1736470909
190,utrik,11.2278,169.8474,299.98,77,5,9.58,MH,1736470910
191,cumra,37.5732,32.7745,277.18,79,100,0.25,TR,1736470911
192,tiksi,71.6872,128.8694,246.44,99,93,4.51,RU,1736470912
193,northam,51.0333,-4.2167,273.6,91,89,0.89,GB,1736470913
194,puerto ayora,-0.7393,-90.3518,296.79,87,85,2.62,EC,1736470915
195,tindouf,27.6711,-8.1474,284.85,30,32,2.54,DZ,1736470916
196,qujing,25.4833,103.7833,274.99,99,100,1.86,CN,1736470917
197,grafton,42.207,-71.6856,268.33,65,10,2.24,US,1736470918
198,sibolga,1.7427,98.7792,298.52,78,100,1.4,ID,1736470919
199,egilsstadir,65.2653,-14.3948,255.1,85,14,1.03,IS,1736470920
200,gadzhiyevo,69.2551,33.3362,266.42,92,100,4.84,RU,1736470921
201,luzino,54.9481,73.0353,270.02,59,75,10.0,RU,1736470923
202,santa maria del oro,25.9333,-105.3667,280.76,47,0,8.58,MX,1736470924
203,charters towers,-20.1,146.2667,305.44,37,5,5.93,AU,1736470925
204,skopin,53.8249,39.5505,274.46,87,100,5.28,RU,1736470926
205,porbandar,21.6422,69.6093,292.72,45,0,3.37,IN,1736470927
206,am timan,11.0297,20.2827,294.37,17,5,3.68,TD,1736470928
207,hauterive,46.0901,3.4459,275.91,84,100,1.54,FR,1736470929
208,dapa,9.7594,126.0531,300.69,76,100,0.46,PH,1736470930
209,hami,42.8,93.45,266.35,66,90,0.76,CN,1736470931
210,kokoda,-8.8785,147.7407,302.9,77,86,1.42,PG,1736470933
211,wynyard,-41.0,145.7167,294.37,72,98,6.26,AU,1736470934
212,buala,-8.145,159.5921,302.46,75,95,4.97,SB,1736470935
213,i-n-salah,27.1935,2.4607,286.1,28,1,4.51,DZ,1736470936
214,tsiombe,-25.3,45.4833,297.37,97,13,0.59,MG,1736470937
215,invercargill,-46.4,168.35,290.94,76,75,4.02,NZ,1736470938
216,howrah,22.5892,88.3103,286.15,82,0,4.12,IN,1736470939
217,madinat ash shamal,26.1293,51.2009,291.4,75,100,5.55,QA,1736470941
218,mount pearl,47.5166,-52.7813,273.23,89,100,7.2,CA,1736470942
219,nakonde,-9.3421,32.745,289.12,91,100,0.64,ZM,1736470943
220,russkaya polyana,49.417,31.9201,277.82,92,9,3.63,UA,1736470944
221,akureyri,65.6835,-18.0878,273.11,59,0,8.23,IS,1736470945
222,flin flon,54.7682,-101.865,259.06,66,100,8.23,CA,1736470947
223,bonthe,7.5264,-12.505,298.92,87,100,1.29,SL,1736470948
224,borovskoy,53.8,64.15,268.77,88,100,10.03,KZ,1736470950
225,fort bragg,35.139,-79.006,271.93,55,0,0.45,US,1736470937
226,damara,4.9608,18.7035,295.63,25,100,2.01,CF,1736470952
227,kerouane,9.2667,-9.0167,296.42,23,100,0.62,GN,1736470954
228,riberalta,-10.9833,-66.1,295.97,100,100,1.03,BO,1736470955
229,kerikeri,-35.2268,173.9474,292.58,77,99,2.85,NZ,1736470956
230,constantia,44.1833,28.65,280.76,94,100,5.25,RO,1736470957
231,acarau,-2.8856,-40.12,299.87,82,56,6.06,BR,1736470958
232,sur,22.5667,59.5289,293.07,61,5,3.37,OM,1736470959
233,nova sintra,14.8667,-24.7167,296.57,75,0,9.46,CV,1736470960
234,chernyanka,50.9409,37.8069,273.84,90,30,2.95,RU,1736470962
235,gbadolite,4.2833,21.0167,296.23,31,55,1.27,CD,1736470963
236,bangolo,7.0069,-7.475,296.25,27,100,0.27,CI,1736470964
237,erdenet,49.0333,104.0833,251.64,99,100,1.46,MN,1736470965
238,puerto deseado,-47.7503,-65.8938,285.57,63,0,8.75,AR,1736470966
239,hilo,19.7297,-155.09,299.0,80,20,3.6,US,1736470967
240,den burg,53.0542,4.7972,279.14,65,75,7.72,NL,1736470968
241,shar'ya,58.3686,45.5144,269.76,92,97,3.7,RU,1736470969
242,aasiaat,68.7098,-52.8699,251.19,99,73,2.63,GL,1736470971
243,chengde,40.9725,117.9361,262.28,48,0,1.69,CN,1736470972
244,gebeit,21.0667,36.3167,287.06,75,2,1.01,SD,1736470973
245,raduzhny,62.0961,77.475,258.93,89,100,7.81,RU,1736470974
246,kruisfontein,-34.0033,24.7314,291.84,82,64,3.45,ZA,1736470975
247,porto calvo,-9.045,-35.3983,298.03,86,7,2.18,BR,1736470976
248,mount isa,-20.7333,139.5,310.02,34,2,7.72,AU,1736470807
249,quang ngai,15.1167,108.8,292.93,89,100,2.67,VN,1736470937
250,prince rupert,54.3161,-130.3201,283.2,87,100,13.89,CA,1736470980
251,chui,-33.6971,-53.4616,291.56,84,5,3.5,UY,1736470828
252,cockburn town,21.4612,-71.1419,296.46,70,1,7.49,TC,1736470982
253,el nido,11.1858,119.3956,299.9,91,100,5.69,PH,1736470983
254,piacabucu,-10.4056,-36.4344,300.0,79,53,4.23,BR,1736470984
255,hermanus,-34.4187,19.2345,291.37,86,61,3.4,ZA,1736470985
256,waddan,29.1614,16.139,282.6,59,0,1.05,LY,1736470986
257,tolanaro,-25.0319,46.9987,300.19,83,20,8.23,MG,1736470988
258,flying fish cove,-10.4217,105.6791,298.97,100,100,2.06,CX,1736470989
259,tomatlan,19.9333,-105.25,295.5,76,100,2.66,MX,1736470990
260,gandhidham,23.0833,70.1333,291.1,37,0,2.94,IN,1736470991
261,plettenberg bay,-34.0527,23.3716,293.81,83,100,4.2,ZA,1736470992
262,dudinka,69.4058,86.1778,240.31,100,51,1.43,RU,1736470805
263,shakawe,-18.3667,21.85,294.61,74,100,2.09,BW,1736470994
264,lichtaart,51.2241,4.9199,274.87,94,6,4.42,BE,1736470995
265,karratha,-20.7377,116.8463,306.53,47,100,1.52,AU,1736470996
266,hellin,38.5106,-1.701,281.46,80,0,1.63,ES,1736470965
267,griffith,41.5284,-87.4237,267.12,71,0,5.14,US,1736471000
268,pathanamthitta,9.2667,76.7833,293.56,79,89,1.1,IN,1736471001
269,labuan,5.2767,115.2417,301.35,88,20,0.0,MY,1736471002
270,wailua homesteads,22.0669,-159.378,297.59,86,100,5.66,US,1736471003
271,veraval,20.9,70.3667,292.46,57,96,3.83,IN,1736471004
272,tralee,52.2704,-9.7026,274.44,84,100,5.16,IE,1736471006
273,sagang,10.3612,123.0722,299.01,79,100,0.96,PH,1736471007
274,floro,61.5996,5.0328,272.13,80,2,3.09,NO,1736471008
275,shubarshi,48.5872,57.1869,264.03,89,11,2.92,KZ,1736471009
276,lulea,65.5842,22.1547,254.19,84,100,1.54,SE,1736471010
277,yuzhno-kurilsk,44.0306,145.8556,273.39,69,100,2.12,RU,1736471011
278,arkhangel'sk,64.5401,40.5433,266.21,93,100,9.0,RU,1736471012
279,calilegua,-23.7737,-64.77,297.09,71,67,0.74,AR,1736470930
280,gorontalo,0.5412,123.0595,302.66,71,57,1.22,ID,1736471014
281,margate,51.3813,1.3862,272.98,85,7,4.62,GB,1736470928
282,corzuela,-26.9537,-60.9693,297.89,40,0,2.38,AR,1736471017
283,rumonge,-3.9736,29.4386,295.19,80,94,1.92,BI,1736471018
284,jackson,42.4165,-122.8345,281.96,87,0,1.54,US,1736470920
285,santo domingo petapa,16.8181,-95.1403,291.26,94,0,1.47,MX,1736471020
286,gagliano del capo,39.8442,18.3695,287.01,85,96,5.28,IT,1736471021
287,mae sot,16.7167,98.5667,291.72,94,5,0.0,TH,1736471022
288,san patricio,28.017,-97.5169,278.12,89,100,7.71,US,1736471023
289,garachico,28.7781,-17.7646,288.42,72,0,3.6,ES,1736471025
290,progreso,21.2833,-89.6667,295.56,70,1,7.84,MX,1736471026
291,hobyo,5.3505,48.5268,297.2,76,53,8.37,SO,1736471027
292,kingston,17.997,-76.7936,299.68,74,20,3.09,JM,1736470790
293,shingu,33.7333,135.9833,276.93,46,5,5.09,JP,1736471029
294,khandud,36.9513,72.318,249.25,67,14,2.39,AF,1736471030
295,la passe,45.5549,-0.8967,281.46,83,100,4.31,FR,1736471031
296,kirensk,57.7853,108.1119,256.36,98,100,1.84,RU,1736471032
297,vernal,40.4555,-109.5287,271.99,59,75,4.63,US,1736471033
298,pacific grove,36.6177,-121.9166,289.62,70,0,2.68,US,1736471035
299,laojunmiao,39.8333,97.7333,263.26,88,98,1.5,CN,1736471036
300,murehwa,-17.6432,31.784,290.35,98,100,1.3,ZW,1736471037
301,carutapera,-1.195,-46.02,297.45,95,92,2.08,BR,1736471038
302,nezhinka,51.7676,55.3694,269.24,100,100,3.0,RU,1736471039
303,marsh harbour,26.5412,-77.0636,291.67,58,0,9.41,BS,1736471040
304,puerto lempira,15.2667,-83.7667,299.23,78,40,3.6,HN,1736471041
305,ascoli piceno,42.8548,13.5749,286.62,75,100,3.0,IT,1736471042
306,berdigestyakh,62.0989,126.6992,240.85,97,99,1.38,RU,1736471043
307,haiku-pauwela,20.9219,-156.3051,299.16,75,40,8.94,US,1736471045
308,zhanaozen,43.3,52.8,271.3,59,0,5.82,KZ,1736471046
309,combee settlement,28.0584,-81.9054,282.07,66,0,3.09,US,1736471047
310,santiago de cao,-7.9589,-79.2392,291.22,88,100,4.63,PE,1736471048
311,salinas,36.6777,-121.6555,290.2,58,0,3.09,US,1736470857
312,juegang,32.3174,121.1855,272.77,59,11,5.11,CN,1736471050
313,mahibadhoo,3.7833,72.9667,300.78,78,100,6.43,MV,1736471051
314,havre,49.5833,0.3333,278.02,81,75,3.6,FR,1736471052
315,drayton valley,53.2168,-114.9854,267.98,89,100,2.01,CA,1736471054
316,port augusta,-32.5,137.7667,303.59,26,0,5.46,AU,1736471056
317,abadiania,-16.2042,-48.7069,292.66,97,100,2.09,BR,1736471057
318,callao,-12.0667,-77.15,296.88,68,0,5.66,PE,1736470823
319,illapel,-31.6308,-71.1653,292.9,62,0,1.9,CL,1736471059
320,mournies,35.4764,24.0092,283.37,93,20,1.54,GR,1736471060
321,muisne,0.6,-80.0333,297.91,87,100,3.08,EC,1736471062
322,steinbach,50.1667,8.5667,275.16,82,75,6.17,DE,1736471063
323,duba,27.3513,35.6901,291.59,45,0,1.44,SA,1736471064
324,birzebbuga,35.8258,14.5269,288.53,82,20,3.6,MT,1736471065
325,haizhou,34.5817,119.1289,269.09,30,0,2.31,CN,1736471066
326,tucuma,-0.1833,-50.05,297.84,92,87,2.36,BR,1736471067
327,nadym,65.5333,72.5167,259.84,94,100,13.24,RU,1736471068
328,tymovskoye,50.8456,142.655,259.5,95,100,3.28,RU,1736471070
329,howard springs,-12.497,131.047,304.75,87,91,1.48,AU,1736471071
330,lata,40.1629,-8.3327,283.7,93,90,1.7,PT,1736471072
331,ontinyent,38.8167,-0.6167,285.86,81,10,4.42,ES,1736471073
332,mount gambier,-37.8333,140.7667,303.81,25,77,2.39,AU,1736471074
333,trairi,-3.2778,-39.2689,299.31,83,100,4.26,BR,1736470903
334,kavieng,-2.5744,150.7967,302.96,70,100,3.37,PG,1736471076
335,zouerate,22.7187,-12.4521,287.54,15,17,4.59,MR,1736471079
336,college station,30.628,-96.3344,276.08,95,100,6.69,US,1736471069
337,changzhi,35.2089,111.7386,272.55,24,6,2.59,CN,1736471081
338,barra de santo antonio,-9.4047,-35.5072,299.06,85,3,4.07,BR,1736470921
339,vernon,50.2581,-119.2691,275.79,76,100,3.13,CA,1736471083
340,anatuya,-28.4606,-62.8347,298.17,47,15,2.84,AR,1736470887
341,smithers,54.7804,-127.1743,275.33,100,100,1.54,CA,1736471087
342,asipovichy,53.2933,28.6422,277.86,97,100,3.88,BY,1736471088
343,boa vista,2.8197,-60.6733,303.14,48,0,1.54,BR,1736471017
344,mugia,43.1041,-9.2179,288.66,93,79,10.89,ES,1736471090
345,maumere,-8.6199,122.2111,301.04,81,100,2.38,ID,1736471091
346,egersund,58.4513,5.9997,269.2,84,31,2.19,NO,1736471092
347,ilaro,6.8865,3.0205,295.76,88,2,1.24,NG,1736471093
348,mar del plata,-38.0023,-57.5575,295.42,88,0,8.49,AR,1736470523
349,namibe,-15.1961,12.1522,293.45,82,7,0.93,AO,1736471096
350,hamilton,39.1834,-84.5333,266.24,74,0,3.09,US,1736471097
351,tocopilla,-22.092,-70.1979,293.76,79,24,3.35,CL,1736471098
352,east london,-33.0153,27.9116,295.01,80,53,6.71,ZA,1736470577
353,malvik,63.4333,10.6833,266.92,86,75,3.09,NO,1736471100
354,minas de matahambre,22.5887,-83.9447,290.01,73,67,4.19,CU,1736471101
355,dorogobuzh,54.915,33.2972,274.14,97,100,4.8,RU,1736471102
356,newman,37.3138,-121.0208,287.07,65,0,1.72,US,1736471103
357,vilyuysk,63.7553,121.6247,246.09,100,100,1.28,RU,1736471105
358,udachny,66.4167,112.4,249.95,100,100,0.37,RU,1736470865
359,balikpapan,-1.2675,116.8289,299.7,74,20,2.06,ID,1736471108
360,san luis de la loma,17.2706,-100.8939,298.9,75,100,4.35,MX,1736471109
361,larne,54.85,-5.8167,272.89,95,0,3.42,GB,1736470954
362,asbury lake,30.0491,-81.8215,277.51,71,6,2.07,US,1736471112
363,arar,30.9753,41.0381,279.16,56,0,2.06,SA,1736471113
364,inhambane,-23.865,35.3833,300.19,88,18,5.64,MZ,1736471114
365,el bauga,18.262,33.9081,290.62,40,6,4.3,SD,1736471115
366,selfoss,63.9331,-20.9971,266.5,93,100,3.52,IS,1736471116
367,dunedin,-45.8742,170.5036,288.73,69,54,3.67,NZ,1736471117
368,salym,60.0625,71.4789,270.31,96,100,5.81,RU,1736471119
369,nola,40.922,14.5329,285.94,96,100,1.22,IT,1736471120
370,guankou,28.15,113.6333,277.59,58,0,0.39,CN,1736471121
371,antonio enes,-16.2325,39.9086,297.95,93,6,3.46,MZ,1736471123
372,ngara,-2.5122,30.6558,285.53,93,100,0.65,TZ,1736471124
373,saint croix,17.7397,-64.7388,297.4,80,100,2.06,VI,1736471126
374,lafollette,36.3829,-84.1199,269.21,58,0,0.0,US,1736471069
375,iranshahr,27.2025,60.6848,281.34,36,0,2.06,IR,1736471128
376,puerto lleras,3.0223,-73.4044,297.35,79,94,0.96,CO,1736471129
377,tambura,5.6,27.4667,294.76,24,39,1.5,SS,1736471130
378,bada,51.392,109.8717,246.58,99,25,1.47,RU,1736471132
379,manaure,11.7751,-72.4445,299.89,76,9,6.46,CO,1736470990
380,siwa oasis,29.2041,25.5195,286.53,76,0,4.09,EG,1736471135
381,nemuro,43.3236,145.575,272.98,63,100,2.81,JP,1736471136
382,pangai,-19.8,-174.35,298.21,83,100,6.17,TO,1736471137
383,lobujya,27.95,86.8167,259.09,12,0,1.89,NP,1736471138
384,nova vicosa,-17.8919,-39.3719,297.19,94,100,2.99,BR,1736471140
385,ketchikan,55.3422,-131.6461,282.95,89,100,7.6,US,1736471141
386,kavaratti,10.5669,72.642,299.82,76,100,4.75,IN,1736471143
387,illizi,26.4833,8.4667,283.2,28,0,1.47,DZ,1736470934
388,sint michiel liber,12.15,-68.9833,300.2,78,20,3.09,CW,1736471146
389,kirakira,-10.4544,161.9205,301.9,79,98,4.16,SB,1736471147
390,olinda,-8.0089,-34.8553,301.0,83,75,3.6,BR,1736470908
391,ust'-kulom,61.6864,53.6902,264.14,84,55,5.07,RU,1736471149
392,sirte,31.2089,16.5887,287.04,61,0,3.89,LY,1736471150
393,richards bay,-28.783,32.0377,296.8,91,9,4.14,ZA,1736471151
394,parker,32.7668,-97.8003,273.99,92,100,0.45,US,1736471152
395,leava,-14.3,-178.1667,300.53,80,100,10.08,WF,1736471153
396,el granada,37.5027,-122.4694,291.05,55,0,3.09,US,1736471154
397,awjilah,29.1081,21.2869,284.77,81,0,4.08,LY,1736471157
398,porto novo,6.4965,2.6036,301.05,85,0,1.64,BJ,1736471085
399,mananjary,-21.2167,48.3333,297.76,93,20,1.67,MG,1736471159
400,sarnia,42.9787,-82.4041,265.31,62,0,1.54,CA,1736471160
401,isangel,-19.55,169.2667,302.21,61,40,3.09,VU,1736471161
402,cooper's town,26.8667,-77.5167,291.1,59,0,9.91,BS,1736471163
403,sabzevar,36.2126,57.6819,276.83,29,57,3.14,IR,1736471164
404,talcahuano,-36.7167,-73.1167,289.97,59,0,6.69,CL,1736471165
405,tamandare,-8.7597,-35.1047,299.27,85,5,4.38,BR,1736471108
406,naantali,60.4674,22.0243,274.38,93,100,2.57,FI,1736471167
407,sukhothai,17.25,99.6667,293.09,94,20,1.03,TH,1736471168
408,bedele,8.456,36.353,286.75,53,21,1.42,ET,1736471170
409,baker city,44.7749,-117.8344,271.99,80,100,3.09,US,1736471171
410,grand-lahou,5.1367,-5.0242,299.49,83,91,2.23,CI,1736470876
411,galashiels,55.6146,-2.807,270.18,90,10,1.95,GB,1736471173
412,czersk,53.7959,17.9765,274.69,96,100,7.52,PL,1736471174
413,vikulovo,56.8167,70.6107,269.68,87,100,9.41,RU,1736471175
414,choibalsan,48.0667,114.5,258.08,60,97,4.01,MN,1736471176
415,tuyen quang,21.8233,105.2181,287.85,47,100,2.28,VN,1736471178
416,cannonvale,-20.2833,148.7,302.81,65,99,3.01,AU,1736471179
417,fale old settlement,-9.3852,-171.2468,301.26,71,100,9.22,TK,1736471180
418,nikolayevsk-on-amure,53.1406,140.73,252.41,91,14,2.11,RU,1736471181
419,salihli,38.4826,28.1477,284.02,74,0,0.73,TR,1736471184
420,percut,3.6253,98.864,297.27,88,100,2.84,ID,1736471040
421,makurazaki,31.2667,130.3167,276.29,72,86,9.1,JP,1736471186
422,tambacounda,13.7539,-13.7586,298.18,41,0,3.09,SN,1736471187
423,mongo,12.1844,18.693,291.95,21,0,2.76,TD,1736471188
424,brambleton,38.9821,-77.5386,269.88,56,1,6.38,US,1736471190
425,betare oya,5.6,14.0833,292.91,28,39,2.18,CM,1736471191
426,capinopolis,-18.6819,-49.5697,295.36,91,64,2.25,BR,1736470974
427,puerto baquerizo moreno,-0.9,-89.6,296.88,88,75,4.52,EC,1736471193
428,weno,7.4515,151.8468,304.12,79,20,5.14,FM,1736471194
429,beboto,8.2668,16.939,292.82,24,10,2.41,TD,1736471196
430,arklow,52.7931,-6.1414,274.12,83,99,2.12,IE,1736471197
431,new norfolk,-42.7826,147.0587,301.88,33,32,1.26,AU,1736471198
432,ciudad de allende,25.2833,-100.0167,283.84,87,100,1.83,MX,1736471199
433,rio gallegos,-51.6226,-69.2181,290.18,27,0,5.66,AR,1736471152
434,port douglas,-16.4833,145.4667,302.21,62,7,2.62,AU,1736471201
435,coquimbo,-29.9533,-71.3436,291.0,82,100,2.57,CL,1736471202
436,khandyga,62.6667,135.6,239.24,92,100,1.37,RU,1736471203
437,gidole,5.65,37.3667,287.6,54,99,2.03,ET,1736471205
438,linden,6.0,-58.3,295.7,78,94,2.2,GY,1736471206
439,mutoko,-17.397,32.2268,290.17,97,100,0.72,ZW,1736471207
440,ulsteinvik,62.3432,5.8487,271.35,79,25,0.45,NO,1736471208
441,noosa heads,-26.3833,153.15,298.47,70,13,2.39,AU,1736471209
442,ilha solteira,-20.4328,-51.3425,299.98,61,33,2.21,BR,1736471075
443,groningen,53.25,6.75,275.44,94,20,3.6,NL,1736471159
444,lhasa,29.65,91.1,266.85,20,0,1.69,CN,1736471095
445,krasnoarmeyskoye,52.7182,50.0322,274.44,85,100,2.26,RU,1736471214
446,saint-joseph,-21.3667,55.6167,297.36,76,100,0.95,RE,1736471215
447,bear valley springs,35.1591,-118.6284,283.64,18,0,1.31,US,1736471216
448,perryton,36.4,-100.8027,274.11,93,100,7.72,US,1736470937
449,beawar,26.1,74.3167,284.8,47,0,4.5,IN,1736470965
450,bamboo flat,11.7,92.7167,300.2,83,75,4.12,IN,1736471219
451,kishtwar,33.3167,75.7667,276.08,34,11,3.02,IN,1736471220
452,dhidhdhoo,6.8833,73.1,300.89,76,100,8.61,MV,1736471222
453,myrina,39.8797,25.0742,285.73,94,75,0.0,GR,1736471223
454,coahuayana de hidalgo,18.7,-103.6583,297.38,78,100,1.56,MX,1736471224
455,biasca,46.3597,8.9697,277.48,79,55,6.46,CH,1736471226
456,reyes,-14.3167,-67.3833,296.4,99,100,1.28,BO,1736471227
457,dalhart,36.0595,-102.5133,271.16,86,100,15.43,US,1736471228
458,hastings,50.8552,0.5729,273.59,65,0,2.78,GB,1736471229
459,concepcion,-36.827,-73.0498,290.04,59,0,6.69,CL,1736471040
460,erenhot,43.6475,111.9767,258.83,60,0,1.54,CN,1736471231
461,kapoeta,4.7717,33.5903,299.6,27,100,0.77,SS,1736471232
462,al bawiti,28.3492,28.8659,283.9,56,0,4.16,EG,1736471233
463,ixtapa,20.7,-105.2,296.61,78,100,1.54,MX,1736471235
464,mont-dore,-22.2833,166.5833,299.65,57,59,5.65,NC,1736471236
465,acapulco de juarez,16.8634,-99.8901,301.05,69,75,4.12,MX,1736471237
466,dalandzadgad,43.5708,104.425,262.89,68,100,0.63,MN,1736471238
467,akjoujt,19.6969,-14.4164,292.57,14,0,5.84,MR,1736471240
468,agbabu,6.5886,4.8343,295.93,96,3,0.19,NG,1736471242
469,rock springs,41.5875,-109.2029,267.84,86,75,0.0,US,1736471185
470,sorong,-0.8833,131.25,301.11,77,100,1.53,ID,1736471244
471,qamdo,31.1667,97.2333,266.24,53,99,0.46,CN,1736471245
472,goundam,16.4145,-3.6708,293.18,15,100,4.45,ML,1736471246
473,abadan,30.3392,48.3043,287.26,47,0,4.07,IR,1736471248
474,chibougamau,49.9168,-74.3659,263.94,92,100,4.63,CA,1736471249
475,niquero,20.0431,-77.5828,296.12,67,33,10.01,CU,1736471250
476,rabigh,22.7986,39.0349,297.49,48,89,3.79,SA,1736471251
477,ola,59.5833,151.2833,253.59,78,20,2.66,RU,1736471252
478,williams lake,52.1415,-122.1445,275.96,83,100,3.13,CA,1736471253
479,tianpeng,30.9866,103.9393,279.33,86,100,1.44,CN,1736471255
480,toliara,-23.35,43.6667,300.12,66,5,2.76,MG,1736471256
481,conduaga,8.862,117.4893,300.94,77,100,0.33,PH,1736471257
482,filingue,14.3521,3.3168,291.92,19,97,4.72,NE,1736471258
483,urangan,-25.3,152.9,298.64,69,5,1.86,AU,1736471259
484,antofagasta,-23.65,-70.4,293.75,80,49,1.57,CL,1736471260
485,mata-utu,-13.2816,-176.1745,300.42,85,100,14.32,WF,1736471261
486,tekari,24.9333,84.8333,281.36,64,1,1.59,IN,1736471262
487,mingguang,32.7802,117.9638,271.37,32,0,1.45,CN,1736471264
488,valreas,44.3837,4.9908,278.94,79,18,5.59,FR,1736471265
489,jining,35.405,116.5814,269.59,22,5,1.85,CN,1736471266
490,truth or consequences,33.1284,-107.2528,273.79,84,100,6.69,US,1736471267
491,scarborough,54.2797,-0.4044,271.95,64,20,1.79,GB,1736471129
492,yulinshi,38.2906,109.7494,265.39,45,0,5.48,CN,1736471269
493,alexandria,31.2156,29.9553,288.45,67,0,0.5,EG,1736470776
494,crane,31.3974,-102.3501,278.63,53,8,3.15,US,1736471272
495,port macquarie,-31.4333,152.9167,298.75,77,100,2.68,AU,1736471273
496,revda,56.801,59.9303,272.41,88,100,6.73,RU,1736471274
497,yoko,5.5333,12.3167,290.35,30,1,1.53,CM,1736471275
498,bahir dar,11.5936,37.3908,288.97,49,5,1.5,ET,1736471276
499,nuuk,64.1835,-51.7216,268.49,68,11,7.72,GL,1736471118
500,altay,47.8667,88.1167,256.24,76,88,3.08,CN,1736471212
501,nguigmi,14.2495,13.1092,289.93,26,100,4.97,NE,1736471280
502,necochea,-38.5473,-58.7368,291.54,88,99,4.44,AR,1736471281
503,butembo,0.15,29.2833,290.21,53,96,0.97,CD,1736471282
504,mazouna,36.1223,0.8987,282.7,88,2,2.76,DZ,1736471283
505,laguna,38.421,-121.4238,289.95,63,0,3.09,US,1736471258
506,castillos,-34.1667,-53.8333,291.53,82,2,3.19,UY,1736471286
507,komsomol'skiy,43.9783,46.6985,277.29,93,8,2.8,RU,1736471287
508,mirpur sakro,24.5474,67.6277,289.21,26,0,3.12,PK,1736471289
509,san juan,-31.5375,-68.5364,301.25,38,86,2.59,AR,1736471160
510,bubaque,11.2833,-15.8333,298.43,80,0,4.42,GW,1736471291
511,san julian,21.0167,-102.1667,288.56,59,67,8.32,MX,1736471292
512,ciudad bolivar,8.1222,-63.5497,302.1,43,10,6.17,VE,1736471293
513,la mira,18.035,-102.3266,297.59,74,100,2.28,MX,1736471295
514,rongelap,11.1635,166.8941,300.49,76,1,9.92,MH,1736471297
515,linxia chengguanzhen,35.6003,103.2064,264.99,84,100,1.02,CN,1736471298
516,bardai,11.65,7.2333,287.83,24,0,4.62,NG,1736471299
517,magong,23.5654,119.5863,287.52,72,23,17.62,TW,1736471300
518,puri,19.8,85.85,290.17,66,0,3.33,IN,1736471301
519,colotlan,22.1,-103.2667,286.02,77,25,3.84,MX,1736471303
520,karsun,54.1994,46.9827,272.69,86,100,2.48,RU,1736471304
521,shouguang,36.88,118.7375,268.29,27,2,2.94,CN,1736471305
522,acajutla,13.5928,-89.8275,299.32,79,72,2.02,SV,1736471306
523,pandan,14.0453,124.1694,298.2,90,99,8.59,PH,1736471307
524,lugazi,0.3772,32.9197,291.73,81,94,0.16,UG,1736471308
525,cidade velha,14.9167,-23.6167,295.77,69,0,3.74,CV,1736471309
526,ciudad lazaro cardenas,17.9583,-102.2,298.71,72,92,2.48,MX,1736471311
527,caxias,38.7031,-9.2767,288.44,67,75,2.57,PT,1736471312
528,ugoofaaru,5.6667,73.0,300.83,78,18,8.08,MV,1736471313
529,paoua,7.2427,16.4406,292.45,26,0,2.06,CF,1736471071
530,deqen,29.9618,90.7188,265.1,20,0,2.78,CN,1736471315
531,chardon,41.6142,-81.149,265.14,79,4,0.89,US,1736471316
532,piti village,13.4626,144.6933,303.32,78,7,7.07,GU,1736471317
533,zwedru,6.0667,-8.1281,296.35,82,100,0.85,LR,1736471319
534,noumea,-22.2763,166.4572,297.8,69,41,8.04,NC,1736471320
535,crete,35.1558,24.895,277.88,79,7,1.06,GR,1736471271
536,guarapari,-20.6667,-40.4975,296.11,93,100,5.34,BR,1736471322
537,caleta de carquin,-11.0925,-77.6267,294.42,84,100,4.2,PE,1736471323
538,shihezi,44.3,86.0333,265.69,92,100,0.1,CN,1736471324
539,nizhnesortymskiy,62.4397,71.7603,262.96,94,100,10.31,RU,1736471325
540,puerto aysen,-45.4,-72.7,283.63,76,2,1.77,CL,1736471326
541,guerrero negro,27.9769,-114.0611,288.34,67,0,6.17,MX,1736471327
542,ballina,-28.8667,153.5667,298.06,68,100,2.68,AU,1736471329
543,tadine,-21.55,167.8833,298.84,61,100,5.42,NC,1736471330
544,manokwari,-0.8667,134.0833,301.47,69,100,0.61,ID,1736471331
545,fasa,28.9383,53.6482,280.05,51,0,3.26,IR,1736471332
546,lewiston orchards,46.3804,-116.9754,275.86,84,75,0.0,US,1736471333
547,sao jose da coroa grande,-8.8978,-35.1478,299.34,85,6,4.62,BR,1736471334
548,sao gabriel da cachoeira,-0.1303,-67.0892,298.94,75,88,0.37,BR,1736471335
549,lundazi,-12.2929,33.1782,291.5,87,100,1.75,ZM,1736471336
550,copiapo,-27.3667,-70.3333,292.85,67,0,2.09,CL,1736471211
551,qarauyl,48.9451,79.255,263.29,65,95,3.89,KZ,1736471339
552,kargasok,59.0556,80.8572,257.77,95,100,5.42,RU,1736471340
553,boguchany,58.3814,97.4531,252.23,100,89,1.8,RU,1736471341
554,paracuru,-3.41,-39.0306,299.69,84,100,4.82,BR,1736471342
555,coxen hole,16.3244,-86.5366,296.75,78,20,2.06,HN,1736471343
556,kindu,-2.95,25.95,294.8,93,100,0.98,CD,1736471344
557,greymouth,-42.4667,171.2,292.41,69,73,3.58,NZ,1736471299
558,kasongo,-4.45,26.6667,293.79,97,100,1.11,CD,1736471346
559,rio verde,21.9333,-99.9833,291.63,63,55,2.92,MX,1736471348
560,vila velha,-20.3297,-40.2925,295.9,98,100,1.79,BR,1736470754
561,skive,56.5667,9.0333,273.24,92,62,2.47,DK,1736471350
562,mandan,46.8267,-100.8896,271.14,78,0,6.69,US,1736471210
563,serenje,-13.2325,30.2352,290.26,98,100,3.05,ZM,1736471352
564,motygino,58.1831,94.7592,254.39,99,100,1.09,RU,1736471353
565,taulaga,-11.0553,-171.0883,301.77,70,100,10.85,AS,1736471354
566,guelmim,28.987,-10.0574,286.33,40,99,0.53,MA,1736471355
567,christchurch,-43.5333,172.6333,292.26,63,20,3.09,NZ,1736471221
568,canavieiras,-15.675,-38.9472,297.35,93,95,1.6,BR,1736471358
569,daltonganj,24.0333,84.0667,280.65,47,5,0.98,IN,1736471359
570,kosh-agach,50.0,88.6667,249.58,100,98,0.45,RU,1736471360
