City_ID,City,Lat,Lng,Max Temp,Humidity,Cloudiness,Wind Speed,Country,Date
0,retreat,38.8245,-85.8533,270.92,53,8,0.45,US,1736446293
1,paramonga,-10.6667,-77.8333,296.47,75,61,4.34,PE,1736446294
2,nyandoma,61.669,40.1991,258.0,99,100,2.49,RU,1736446295
3,ushuaia,-54.8,-68.3,285.45,49,90,2.58,AR,1736446243
4,yellowknife,62.456,-114.3525,247.44,76,20,2.06,CA,1736446298
5,lagoa,39.05,-27.9833,290.9,90,100,8.85,PT,1736446299
6,flagstaff,35.1981,-111.6513,273.71,43,0,8.23,US,1736446032
7,albany,42.6001,-73.9662,267.85,65,67,5.36,US,1736446235
8,tanjung pandan,-2.75,107.65,300.0,84,100,4.99,ID,1736446302
9,bredasdorp,-34.5322,20.0403,294.92,67,0,9.86,ZA,1736446303
10,puerto baquerizo moreno,-0.9,-89.6,301.7,70,40,6.69,EC,1736446304
11,mil'kovo,55.6078,37.7956,273.34,94,70,3.86,RU,1736446306
12,nemuro,43.3236,145.575,268.6,67,13,1.15,JP,1736446307
13,ulaangom,49.9811,92.0667,250.53,99,100,0.71,MN,1736446308
14,blackmans bay,-43.0167,147.3167,286.77,91,13,0.45,AU,1736446309
15,georgetown,5.4112,100.3354,301.11,68,20,2.57,MY,1736445824
16,olonkinbyen,70.9221,-8.7187,269.29,75,100,10.27,SJ,1736446311
17,stanley,54.868,-1.6985,271.58,80,0,3.6,GB,1736446313
18,namibe,-15.1961,12.1522,294.8,77,92,3.24,AO,1736446314
19,alta,69.9689,23.2717,251.74,84,20,2.06,NO,1736446315
20,port-aux-francais,-49.35,70.2167,278.04,92,95,22.16,TF,1736446316
21,port alfred,-33.5906,26.891,297.14,90,0,2.71,ZA,1736446317
22,carnarvon,-24.8667,113.6333,298.18,67,54,9.29,AU,1736446318
23,waitangi,-43.9535,-176.5597,284.72,89,77,2.68,NZ,1736446320
24,ancud,-41.8697,-73.8203,289.24,51,63,4.75,CL,1736446267
25,sao jose dos campos,-23.1794,-45.8869,296.42,83,75,5.66,BR,1736446300
26,saint-philippe,-21.3585,55.7679,299.54,85,6,5.1,RE,1736446323
27,port elizabeth,-33.918,25.5701,296.31,88,0,4.63,ZA,1736445737
28,winterset,41.3308,-94.0138,274.02,74,90,6.41,US,1736446228
29,aioun,16.6614,-9.6149,301.13,11,9,4.97,MR,1736446326
30,krasnovishersk,60.4078,57.082,272.69,98,100,2.75,RU,1736446328
31,bom jesus do itabapoana,-21.1339,-41.6797,299.77,86,62,2.64,BR,1736446329
32,iqaluit,63.7506,-68.5145,256.0,77,100,1.03,CA,1736446330
33,klyuchi,52.2667,79.1667,266.65,95,100,5.88,RU,1736446331
34,margaret river,-33.95,115.0667,288.0,83,100,2.96,AU,1736446332
35,namsos,64.4662,11.4957,269.1,80,75,4.12,NO,1736446333
36,peniche,39.3558,-9.3811,289.93,93,16,4.31,PT,1736446334
37,arraial do cabo,-22.9661,-42.0278,298.07,94,100,4.63,BR,1736446094
38,hawaiian paradise park,19.5933,-154.9731,294.76,99,100,3.09,US,1736446106
39,tura,25.5198,90.2201,286.27,73,1,1.43,IN,1736446338
40,badger,64.8,-147.5333,262.08,86,0,0.0,US,1736446339
41,edinburgh of the seven seas,-37.0676,-12.3116,290.97,92,100,5.23,SH,1736446340
42,qaqortoq,60.7167,-46.0333,263.36,70,82,2.78,GL,1736446342
43,bethel,41.3712,-73.414,274.76,55,78,5.81,US,1736446345
44,tiksi,71.6872,128.8694,247.53,97,32,5.45,RU,1736446346
45,college,64.8569,-147.8028,263.19,82,75,0.0,US,1736446347
46,uturoa,-16.7333,-151.4333,301.28,74,100,5.31,PF,1736446348
47,adamstown,-25.066,-130.1015,298.08,80,100,9.85,PN,1736446349
48,salinopolis,-0.6136,-47.3561,301.16,79,69,4.16,BR,1736446350
49,palikir - national government center,6.9248,158.1611,300.61,78,98,9.01,FM,1736446352
50,opuwo,-18.0607,13.84,299.21,34,100,4.46,NA,1736446353
51,grytviken,-54.2811,-36.5092,277.18,77,100,2.35,GS,1736446354
52,floro,61.5996,5.0328,271.13,74,50,2.57,NO,1736446355
53,hermanus,-34.4187,19.2345,294.71,74,10,8.37,ZA,1736446356
54,nouadhibou,20.931,-17.0347,296.14,49,7,4.63,MR,1736446357
55,bahir dar,11.5936,37.3908,292.47,43,11,2.65,ET,1736446358
56,lubang,13.8584,120.124,299.5,74,32,11.82,PH,1736446359
57,acarau,-2.8856,-40.12,303.7,60,33,7.64,BR,1736446361
58,tual,-5.6667,132.75,302.01,72,100,5.65,ID,1736446362
59,lycksele,64.5954,18.6735,264.08,92,100,1.03,SE,1736446363
60,fale old settlement,-9.3852,-171.2468,301.23,69,92,9.9,TK,1736446364
61,formosa do rio preto,-11.0483,-45.1931,300.91,71,100,1.56,BR,1736446365
62,punta arenas,-53.15,-70.9167,288.21,33,0,11.32,CL,1736446366
63,ust-nera,64.5667,143.2,242.93,99,100,1.7,RU,1736446367
64,la mira,18.035,-102.3266,301.4,55,88,3.47,MX,1736446369
65,iskateley,67.6803,53.1512,265.73,95,100,5.38,RU,1736446370
66,longyearbyen,78.2186,15.6401,270.06,86,75,4.12,SJ,1736446371
67,saipan,15.1355,145.701,299.62,91,75,4.63,MP,1736446159
68,quelimane,-17.8786,36.8883,302.12,70,75,5.66,MZ,1736446373
69,charters towers,-20.1,146.2667,296.09,80,33,5.8,AU,1736446374
70,talnakh,69.4865,88.3972,246.78,98,32,1.29,RU,1736446375
71,havre,49.5833,0.3333,279.02,65,75,5.14,FR,1736446378
72,pisco,-13.7,-76.2167,298.18,61,0,5.66,PE,1736446379
73,nogliki,51.8333,143.1667,259.89,92,98,7.15,RU,1736446380
74,escarcega,18.6089,-90.7454,301.51,42,43,2.02,MX,1736446381
75,puerto natales,-51.7236,-72.4875,289.4,33,40,10.29,CL,1736446382
76,pasuquin,18.3328,120.6177,297.12,78,20,1.54,PH,1736446383
77,vilyuysk,63.7553,121.6247,251.37,92,100,1.64,RU,1736446385
78,weining,26.85,104.2333,272.35,94,100,1.92,CN,1736446386
79,flying fish cove,-10.4217,105.6791,298.97,94,100,3.09,CX,1736446387
80,prince rupert,54.3161,-130.3201,282.98,87,100,16.46,CA,1736446388
81,grand falls-windsor,48.9332,-55.6649,273.99,93,100,3.72,CA,1736446389
82,prince george,53.9166,-122.753,274.61,95,100,1.79,CA,1736446148
83,port mathurin,-19.6833,63.4167,299.44,90,78,11.35,MU,1736446391
84,kinablangan,7.6947,126.5503,297.4,86,78,2.31,PH,1736446392
85,mitu,1.1983,-70.1733,305.3,52,100,1.9,CO,1736446394
86,kiruna,67.8557,20.2251,256.66,85,100,0.0,SE,1736446395
87,ujae,8.9322,165.7642,301.15,80,11,9.69,MH,1736446393
88,paita,-5.0892,-81.1144,297.98,69,90,6.37,PE,1736446208
89,constantia,44.1833,28.65,281.53,90,0,4.56,RO,1736446399
90,christchurch,-43.5333,172.6333,286.43,80,100,3.6,NZ,1736446243
91,papatowai,-46.5619,169.4708,284.06,84,100,1.65,NZ,1736446402
92,remire-montjoly,4.9167,-52.2667,302.17,70,75,4.12,GF,1736446403
93,kudahuvadhoo,2.6708,72.8944,301.17,74,17,4.76,MV,1736446404
94,invercargill,-46.4,168.35,284.83,90,98,0.45,NZ,1736446405
95,santa vitoria do palmar,-33.5189,-53.3681,299.91,46,54,5.25,BR,1736446406
96,ciudad guadalupe victoria,24.4497,-104.1225,286.7,60,61,14.22,MX,1736446407
97,chibougamau,49.9168,-74.3659,264.94,93,100,5.14,CA,1736446408
98,novoishimskiy,53.1981,66.7694,266.86,71,100,9.8,KZ,1736446410
99,aasiaat,68.7098,-52.8699,257.49,91,93,4.31,GL,1736446411
100,takab,36.4009,47.1133,270.86,77,3,2.09,IR,1736446412
101,nova sintra,14.8667,-24.7167,297.1,71,0,8.28,CV,1736446413
102,puerto ayora,-0.7393,-90.3518,299.57,89,80,2.68,EC,1736446414
103,codrington,-38.2667,141.9667,291.28,68,98,2.86,AU,1736446415
104,rio vista,38.1558,-121.6913,288.39,57,0,3.05,US,1736446417
105,mombetsu,44.3525,143.3525,269.58,70,100,4.95,JP,1736446418
106,lensk,60.7253,114.9278,253.9,89,93,2.14,RU,1736446419
107,evergreen,39.6333,-105.3172,269.67,73,100,1.79,US,1736446420
108,yarkovo,57.4028,67.0786,271.6,96,100,6.27,RU,1736446421
109,okha,53.5739,142.9478,255.46,96,85,7.46,RU,1736446423
110,ain defla,36.2641,1.9679,286.12,62,83,2.75,DZ,1736446424
111,zaozersk,69.4005,32.4476,263.77,90,100,3.4,RU,1736446425
112,st. john's,47.5649,-52.7093,275.42,77,51,2.68,CA,1736446132
113,kapa'a,22.0752,-159.319,294.33,95,100,3.6,US,1736446427
114,mahdishahr,35.7108,53.3556,275.93,65,1,0.81,IR,1736446428
115,bolobo,-2.1667,16.2333,298.0,77,79,1.29,CD,1736446429
116,san pedro de macoris,18.4616,-69.2972,300.78,63,42,2.44,DO,1736446431
117,utrik,11.2278,169.8474,300.1,78,12,11.02,MH,1736446432
118,ribeira grande,38.5167,-28.7,292.47,82,75,10.29,PT,1736446433
119,villa gesell,-37.2639,-56.973,296.03,65,0,11.07,AR,1736446269
120,kodiak,57.79,-152.4072,275.88,93,100,7.72,US,1736446435
121,berezovyy,51.6667,135.7,251.39,90,28,2.11,RU,1736446334
122,ganshui,28.7422,106.7111,280.93,83,100,1.69,CN,1736446437
123,sittwe,20.15,92.9,291.94,67,0,3.59,MM,1736446438
124,wailua homesteads,22.0669,-159.378,293.59,95,100,3.6,US,1736446441
125,tinogasta,-28.0632,-67.5649,301.61,41,1,5.52,AR,1736446442
126,san juan de miraflores,-12.1629,-76.9635,294.44,77,97,3.35,PE,1736446443
127,east liverpool,40.6187,-80.5773,270.66,57,12,4.48,US,1736446444
128,soio,-6.1349,12.3689,299.16,82,100,3.36,AO,1736446445
129,carbonear,47.7332,-53.2148,274.95,83,67,7.99,CA,1736446446
130,vorgashor,67.5833,63.95,258.11,86,100,6.89,RU,1736446448
131,jamestown,42.097,-79.2353,266.49,73,75,8.75,US,1736446449
132,reggane,26.7158,0.1714,292.16,13,8,3.51,DZ,1736446450
133,udachny,66.4167,112.4,252.48,100,100,1.5,RU,1736446451
134,annau,37.8876,58.516,273.87,86,100,2.06,TM,1736446452
135,east london,-33.0153,27.9116,296.67,83,0,1.03,ZA,1736446454
136,enewetak,11.3474,162.3373,300.29,82,19,11.11,MH,1736446455
137,lihue,21.9789,-159.3672,293.92,100,100,3.6,US,1736446263
138,hiranagar,32.45,75.2667,284.58,32,0,1.39,IN,1736446457
139,ilulissat,69.2167,-51.1,261.16,67,40,8.75,GL,1736446458
140,jalqani,12.4486,34.2186,301.57,22,6,3.51,SD,1736446460
141,koulamoutou,-1.1303,12.4736,296.12,95,65,0.42,GA,1736446462
142,cartagena,10.3997,-75.5144,306.94,59,20,2.57,CO,1736446301
143,isafjordur,66.0755,-23.124,274.17,60,75,7.2,IS,1736446464
144,kapuskasing,49.4169,-82.4331,260.15,66,20,2.06,CA,1736446465
145,timimoun,29.2639,0.231,289.36,31,0,0.0,DZ,1736446466
146,waingapu,-9.6567,120.2641,299.9,86,100,1.28,ID,1736446467
147,tolanaro,-25.0319,46.9987,301.19,78,40,8.23,MG,1736446470
148,san fernando de apure,7.8878,-67.4724,308.73,31,16,3.42,VE,1736446471
149,yeonil,35.9942,129.345,263.13,38,0,4.98,KR,1736446472
150,calama,-22.4667,-68.9333,297.42,19,0,10.8,CL,1736446439
151,kalisz,51.7611,18.091,279.31,87,26,7.08,PL,1736446474
152,barinitas,8.7622,-70.4111,304.23,37,100,1.9,VE,1736446475
153,vernon,50.2581,-119.2691,274.78,83,95,2.06,CA,1736446301
154,tutoia,-2.7619,-42.2744,302.36,69,52,6.34,BR,1736446477
155,port blair,11.6667,92.75,300.17,83,100,2.06,IN,1736446479
156,kingston,17.997,-76.7936,303.68,62,20,4.12,JM,1736446393
157,liperi,62.5333,29.3667,261.41,92,100,1.54,FI,1736446481
158,keflavik,64.0049,-22.5624,273.39,74,75,5.14,IS,1736446482
159,west island,-12.1568,96.8225,299.14,94,100,4.12,CC,1736446483
160,jijiga,9.35,42.8,291.02,55,32,3.07,ET,1736446484
161,petropavlovsk-kamchatsky,53.0452,158.6483,258.48,61,0,3.0,RU,1736446486
162,kailua-kona,19.6406,-155.9956,296.26,75,0,0.45,US,1736446487
163,thompson,55.7435,-97.8558,261.24,72,75,5.14,CA,1736446488
164,sisimiut,66.9395,-53.6735,258.96,75,50,5.52,GL,1736446489
165,vyazemskiy,47.5378,134.7525,255.69,98,100,1.61,RU,1736446491
166,swan hill,-35.3378,143.5544,296.03,45,80,2.09,AU,1736446492
167,bilibino,68.0546,166.4372,243.5,98,100,0.99,RU,1736446493
168,vadso,70.0744,29.7487,267.24,79,75,4.63,NO,1736446494
169,tazacorte,28.629,-17.9293,294.9,73,20,2.57,ES,1736446495
170,margate,51.3813,1.3862,274.19,80,9,8.39,GB,1736446398
171,lebu,-37.6167,-73.65,290.69,72,1,7.65,CL,1736446497
172,chui,-33.6971,-53.4616,300.01,45,34,6.29,UY,1736446499
173,ta`u,-14.2336,-169.5144,301.07,79,100,11.06,AS,1736446500
174,belyy yar,53.6039,91.3903,258.09,100,100,0.0,RU,1736446502
175,bayanhongor,46.7167,100.1167,249.64,86,100,1.07,MN,1736446503
176,khlevnoye,52.1951,39.0932,275.18,85,100,2.01,RU,1736446504
177,champerico,14.3,-91.9167,301.93,68,54,4.09,GT,1736446505
178,chehalis,46.662,-122.964,280.06,99,75,1.54,US,1736446506
179,yuzhno-kurilsk,44.0306,145.8556,270.54,78,53,2.99,RU,1736446507
180,abou el hassan,36.4166,1.1962,288.84,82,87,3.45,DZ,1736446509
181,val-d'or,48.1002,-77.7828,260.12,88,100,4.54,CA,1736446396
182,mount pearl,47.5166,-52.7813,275.45,78,75,9.77,CA,1736446511
183,green river,41.5286,-109.4662,263.68,81,37,2.8,US,1736446512
184,portland,45.5234,-122.6762,280.94,74,22,5.36,US,1736445913
185,chonchi,-42.6128,-73.8092,291.69,38,79,1.18,CL,1736446515
186,toliara,-23.35,43.6667,301.71,75,82,3.91,MG,1736446517
187,sao felix do xingu,-6.6447,-51.995,299.69,91,90,1.21,BR,1736446518
188,kakamega,0.2842,34.7523,292.29,66,66,2.88,KE,1736446519
189,brigantine,39.4101,-74.3646,273.18,51,0,14.92,US,1736446520
190,zouerate,22.7187,-12.4521,294.64,10,4,5.51,MR,1736446521
191,foumban,5.7291,10.9001,296.42,23,25,0.12,CM,1736446522
192,beira,-19.8436,34.8389,300.2,65,20,0.0,MZ,1736446525
193,hadibu,12.65,54.0333,296.14,70,7,5.66,YE,1736446527
194,ribas do rio pardo,-20.4431,-53.7592,310.63,22,15,3.58,BR,1736446528
195,magadan,59.5667,150.8,254.36,85,6,3.45,RU,1736446529
196,moroto,2.5345,34.6666,297.37,40,70,4.6,UG,1736446530
197,bol'shoye kozino,56.4045,43.7147,273.14,80,75,2.0,RU,1736446532
198,kumylzhenskaya,49.8809,42.5898,275.83,95,47,3.18,RU,1736446533
199,antofagasta,-23.65,-70.4,295.75,73,6,4.61,CL,1736446348
200,thunder bay,48.4001,-89.3168,271.14,64,100,6.17,CA,1736446539
201,porto novo,6.4965,2.6036,302.05,72,35,3.76,BJ,1736446322
202,sanandaj,35.3144,46.9923,275.16,65,0,0.0,IR,1736446541
203,hami,42.8,93.45,267.17,65,100,1.81,CN,1736446542
204,puerto rico,-26.796,-55.024,311.97,17,0,1.3,AR,1736446543
205,dudinka,69.4058,86.1778,240.88,100,64,0.64,RU,1736446300
206,pokhara,28.2333,83.9833,282.02,65,0,1.46,NP,1736446545
207,cukurca,37.2481,43.6136,277.1,42,0,2.85,TR,1736446546
208,lyantor,61.6195,72.1555,257.46,92,89,9.79,RU,1736446548
209,kone,-21.0595,164.8658,294.71,86,69,1.97,NC,1736446549
210,horta,38.5333,-28.6333,292.05,90,75,10.29,PT,1736446550
211,island harbour,50.724,-1.2758,277.6,83,21,2.24,GB,1736446551
212,howrah,22.5892,88.3103,289.15,77,4,1.54,IN,1736446552
213,vila franca do campo,37.7167,-25.4333,291.38,95,82,6.2,PT,1736446553
214,yreka,41.7354,-122.6345,281.2,60,20,0.0,US,1736446554
215,sainte-marie,-20.8968,55.5496,299.29,73,0,5.14,RE,1736446556
216,novoagansk,61.9449,76.6625,251.56,100,85,3.97,RU,1736446557
217,pedro juan caballero,-22.5472,-55.7333,307.13,27,40,4.12,PY,1736446558
218,colchani,-20.3,-66.9333,289.51,39,65,0.9,BO,1736446559
219,puerto armuelles,8.2833,-82.8667,298.76,81,99,0.45,PA,1736446560
220,kourou,5.1552,-52.6478,301.85,58,71,3.5,GF,1736446561
221,khawr fakkan,25.3313,56.342,294.18,68,26,3.73,AE,1736446562
222,charleston,32.7766,-79.9309,279.27,34,0,6.69,US,1736446427
223,caohe,30.2297,115.4335,274.29,32,45,0.24,CN,1736446565
224,kristiansund,63.1115,7.732,269.51,80,0,1.54,NO,1736446566
225,sandnessjoen,66.0217,12.6316,270.21,86,75,3.6,NO,1736446567
226,spring creek,40.7266,-115.5859,273.98,75,5,1.79,US,1736446568
227,shira,54.4911,89.9531,259.42,82,100,2.8,RU,1736446569
228,tabou,4.423,-7.3528,300.86,74,86,4.3,CI,1736446570
229,minas de marcona,-15.2119,-75.1103,295.98,48,33,6.83,PE,1736446571
230,selfoss,63.9331,-20.9971,261.16,83,45,2.94,IS,1736446572
231,okhotsk,59.3833,143.3,252.51,78,1,5.08,RU,1736446574
232,saldanha,-33.0117,17.9442,293.04,84,4,3.12,ZA,1736446575
233,hithadhoo,-0.6,73.0833,301.12,72,92,1.92,MV,1736446576
234,molchanovo,57.5817,83.7692,248.69,100,72,1.4,RU,1736446577
235,skvyra,49.7318,29.6657,278.01,89,66,4.68,UA,1736446578
236,meersburg,47.6942,9.2711,279.92,86,100,4.12,DE,1736446579
237,ilebo,-4.3167,20.5833,298.11,79,96,0.66,CD,1736446580
238,avarua,-21.2078,-159.775,300.18,83,100,10.29,CK,1736446514
239,olyokminsk,60.3736,120.4264,241.73,97,61,1.21,RU,1736446583
240,sernur,56.9333,49.1536,271.0,88,100,5.73,RU,1736446584
241,kuanda,56.3161,116.0806,241.85,96,10,0.52,RU,1736446585
242,mudbidri,13.0833,74.9833,297.94,73,44,0.0,IN,1736446586
243,diok'nisi,41.6293,42.3917,276.99,80,29,1.89,GE,1736446589
244,sitka,57.0531,-135.33,282.09,87,100,5.66,US,1736446590
245,camapua,-19.5314,-54.0439,305.65,45,26,1.84,BR,1736446591
246,copiapo,-27.3667,-70.3333,301.37,31,0,5.87,CL,1736446592
247,polyarnyy,69.1989,33.4478,269.8,73,100,3.39,RU,1736446593
248,tokmok,42.8417,75.3016,272.91,49,2,3.53,KG,1736446594
249,dwarka,22.2394,68.9678,294.41,54,19,3.25,IN,1736446596
250,tebingtinggi,3.3285,99.1625,296.11,95,64,1.47,ID,1736446597
251,cadale,2.7603,46.3222,298.25,79,44,9.22,SO,1736446598
252,suva,-18.1416,178.4415,296.86,94,75,0.51,FJ,1736446599
253,akjoujt,19.6969,-14.4164,301.75,9,0,4.32,MR,1736446600
254,sao tome,0.3365,6.7273,300.21,82,56,2.13,ST,1736446601
255,kodinsk,58.6881,99.1844,256.46,99,100,1.84,RU,1736446603
256,kings mountain,35.2451,-81.3412,275.73,30,0,5.14,US,1736446604
257,machico,32.7,-16.7667,294.26,84,20,3.6,PT,1736446605
258,saint-denis,48.9167,2.3333,277.12,87,0,4.12,FR,1736446606
259,kyzyl,51.7,94.45,253.93,99,100,0.96,RU,1736446607
260,beipiao,41.7919,120.7792,261.81,48,6,1.5,CN,1736446608
261,cidreira,-30.1811,-50.2056,296.79,65,72,6.84,BR,1736446610
262,antsiranana,-12.2787,49.2917,298.42,89,86,2.95,MG,1736446611
263,westport,41.1415,-73.3579,275.46,50,0,8.75,US,1736446413
264,sinabang,2.4803,96.3801,299.47,83,100,2.37,ID,1736446613
265,tromso,69.6496,18.957,262.16,79,0,0.0,NO,1736446545
266,fuerte olimpo,-21.0415,-57.8738,315.03,15,0,2.59,PY,1736446615
267,soledade,-28.8183,-52.5103,298.25,54,41,3.81,BR,1736446422
268,sakaiminato,35.55,133.2333,272.14,80,75,6.17,JP,1736446618
269,vrutky,49.1133,18.9171,282.62,52,100,0.45,SK,1736446619
270,ola,59.5833,151.2833,253.32,83,4,4.05,RU,1736446620
271,tralee,52.2704,-9.7026,272.29,100,0,1.54,IE,1736446621
272,katsuura,35.1333,140.3,277.68,52,62,7.81,JP,1736446622
273,haimen,23.1935,116.6142,285.45,70,3,8.64,CN,1736446445
274,brokopondo,4.75,-55.1667,302.66,48,39,0.48,SR,1736446624
275,ghanzi,-21.5667,21.7833,299.78,35,83,3.29,BW,1736446625
276,tanda,26.55,82.65,284.33,58,1,0.47,IN,1736446627
277,saint croix,17.7397,-64.7388,300.9,69,40,3.09,VI,1736446629
278,trenggalek,-8.05,111.7167,297.49,97,100,0.88,ID,1736446343
279,skeldon,5.8833,-57.1333,302.18,55,9,4.3,GY,1736446633
280,muynoq,43.7683,59.0214,270.58,38,0,4.17,UZ,1736446634
281,susuman,62.7833,148.1667,240.0,99,98,0.37,RU,1736446635
282,happy valley-goose bay,53.3168,-60.3315,275.32,80,100,9.26,CA,1736446636
283,klimovo,52.3805,32.1923,275.34,85,100,7.33,RU,1736446637
284,alotau,-10.3069,150.4462,297.21,98,92,1.52,PG,1736446639
285,pasni,25.2631,63.471,294.55,53,0,3.42,PK,1736446503
286,mejit,10.2753,170.8646,300.1,81,49,10.13,MH,1736446641
287,yulinshi,38.2906,109.7494,265.84,30,41,1.72,CN,1736446642
288,whitehorse,60.7161,-135.0538,273.58,86,75,9.77,CA,1736446417
289,zhangye,38.9342,100.4517,266.17,60,100,2.09,CN,1736446644
290,broome,42.2506,-75.833,267.4,78,100,6.69,US,1736446646
291,nangong,37.3581,115.3744,267.7,30,0,2.98,CN,1736446509
292,marsh harbour,26.5412,-77.0636,292.46,59,35,10.5,BS,1736446648
293,jalor,25.35,72.6167,288.85,26,0,1.42,IN,1736446649
294,itoman,26.1247,127.6694,288.16,58,75,11.32,JP,1736446650
295,mountain creek,-26.6907,153.1024,293.86,97,77,1.73,AU,1736446651
296,colonia,50.9333,6.95,274.51,92,75,4.12,DE,1736446652
297,port augusta,-32.5,137.7667,293.95,55,24,4.09,AU,1736446654
298,'alaqahdari dishu,30.4374,63.313,282.16,45,90,2.66,AF,1736446655
299,dunedin,-45.8742,170.5036,284.05,88,99,2.38,NZ,1736446548
300,progreso,21.2833,-89.6667,297.98,55,55,6.64,MX,1736446623
301,mana,5.6592,-53.7767,301.51,59,55,4.21,GF,1736446658
302,cabo san lucas,22.8909,-109.9124,295.79,30,0,4.12,MX,1736446659
303,chippewa falls,44.9369,-91.3929,268.38,67,0,3.09,US,1736446509
304,naze,28.3667,129.4833,283.66,64,98,9.61,JP,1736446663
305,praia da vitoria,38.7333,-27.0667,292.29,88,40,8.96,PT,1736446664
306,mount gambier,-37.8333,140.7667,289.41,81,97,1.18,AU,1736446665
307,ulsteinvik,62.3432,5.8487,272.46,77,90,0.45,NO,1736446666
308,tongchuan,35.0806,109.0897,270.62,40,23,1.47,CN,1736446399
309,hammerfest,70.6634,23.6821,262.4,62,0,1.03,NO,1736446669
310,sarandi del yi,-33.35,-55.6333,306.38,16,1,4.3,UY,1736446670
311,pinotepa nacional,16.3167,-98.0167,305.54,40,29,2.54,MX,1736446671
312,ust'-ilimsk,58.0006,102.6619,263.39,95,100,2.49,RU,1736446672
313,vallenar,-28.5708,-70.7581,303.66,35,10,5.61,CL,1736446590
314,howard springs,-12.497,131.047,299.16,92,58,2.5,AU,1736446675
315,anshun,26.25,105.9333,272.81,90,97,3.81,CN,1736446676
316,bechar,31.6167,-2.2167,289.33,20,0,2.57,DZ,1736446677
317,kargasok,59.0556,80.8572,248.59,100,67,2.57,RU,1736446460
318,la'ie,21.6477,-157.9253,296.13,93,97,4.98,US,1736446679
319,san patricio,28.017,-97.5169,280.12,83,100,6.49,US,1736446681
320,trashi yangtse,27.6116,91.498,277.14,84,25,1.61,BT,1736446682
321,olinda,-8.0089,-34.8553,303.0,70,40,5.66,BR,1736446683
322,anadyr,64.75,177.4833,242.59,74,0,5.0,RU,1736446685
323,nay pyi taw,19.745,96.1297,289.5,66,0,1.22,MM,1736446686
324,holualoa,19.6228,-155.9522,294.74,76,0,0.45,US,1736446687
325,hamilton,39.1834,-84.5333,270.33,60,0,1.79,US,1736446249
326,fortuna,40.5982,-124.1573,284.25,93,0,4.63,US,1736446690
327,atafu village,-8.5421,-172.5159,301.03,70,98,9.01,TK,1736446691
328,salekhard,66.53,66.6019,260.48,95,100,5.99,RU,1736446692
329,san jose del guaviare,2.5729,-72.6459,305.41,46,45,2.81,CO,1736446401
330,balabac,7.9868,117.0645,300.51,82,33,5.94,PH,1736446695
331,lido di ostia,41.7321,12.2765,286.86,81,40,4.63,IT,1736446696
332,ristiina,61.5058,27.2464,265.21,96,100,2.62,FI,1736446698
333,revda,56.801,59.9303,272.29,91,100,7.73,RU,1736446699
334,yurty,56.0498,97.6348,253.05,98,79,1.72,RU,1736446700
335,greymouth,-42.4667,171.2,287.97,86,96,1.66,NZ,1736446701
336,sassandra,4.95,-6.0833,300.64,76,60,3.56,CI,1736446702
337,kerman,30.2832,57.0788,274.07,75,0,2.06,IR,1736446703
338,owatonna,44.0839,-93.226,269.34,74,75,4.12,US,1736446704
339,ruhla,50.8833,10.3667,271.65,89,100,4.97,DE,1736446705
340,keelung,25.1283,121.7419,285.34,64,100,7.62,TW,1736446708
341,sidi khaled,34.387,4.9879,288.73,26,41,1.66,DZ,1736446709
342,amga,60.8953,131.9608,237.52,100,64,0.78,RU,1736446710
343,fort mcmurray,56.7268,-111.381,262.92,85,100,3.09,CA,1736446678
344,priargunsk,50.3691,119.1012,243.75,100,36,0.37,RU,1736446712
345,huarmey,-10.0681,-78.1522,296.82,75,84,4.33,PE,1736446715
346,pekanbaru,0.5333,101.45,297.33,100,20,0.51,ID,1736446716
347,la rinconada,37.4873,-5.9826,289.29,84,10,1.7,ES,1736446717
348,madingou,-4.1536,13.55,296.49,91,79,1.15,CG,1736446718
349,filingue,14.3521,3.3168,298.2,13,39,4.96,NE,1736446719
350,alo,6.5486,4.2686,300.46,78,9,4.18,NG,1736446721
351,madalena,41.2162,-8.3345,287.47,88,87,1.62,PT,1736446722
352,severnoye,56.3491,78.3619,259.15,98,99,2.98,RU,1736446723
353,akureyri,65.6835,-18.0878,269.11,63,0,9.26,IS,1736446724
354,ad dilam,23.9915,47.1627,286.72,48,26,2.62,SA,1736446725
355,mudgee,-32.5943,149.5871,290.51,89,100,2.78,AU,1736446726
356,arica,-18.475,-70.3042,297.28,50,0,8.23,CL,1736446662
357,alaghsas,17.0187,8.0168,294.09,17,0,6.69,NE,1736446729
358,mili,6.0815,171.735,300.95,75,95,8.89,MH,1736446730
359,coquimbo,-29.9533,-71.3436,294.0,77,75,5.14,CL,1736446442
360,fleet,51.2833,-0.8333,273.84,84,0,2.57,GB,1736446732
361,fort bragg,35.139,-79.006,276.38,37,0,6.69,US,1736446733
362,crane,31.3974,-102.3501,278.51,49,76,3.59,US,1736446734
363,bom jesus,-9.0744,-44.3586,304.3,56,82,1.82,BR,1736446735
364,mgandu,-5.95,34.1333,290.77,78,90,0.71,TZ,1736446737
365,khorixas,-20.3667,14.9667,297.31,28,72,8.24,NA,1736446738
366,weno,7.4515,151.8468,301.12,74,75,4.12,FM,1736446740
367,fort st. john,56.2499,-120.8529,271.09,86,100,2.57,CA,1736446741
368,nephi,39.7102,-111.8363,271.02,67,5,3.29,US,1736446742
369,touros,-5.1989,-35.4608,302.4,68,30,5.7,BR,1736446744
370,nuuk,64.1835,-51.7216,268.49,80,20,6.69,GL,1736446745
371,lourdes,43.1,-0.05,282.86,93,100,5.14,FR,1736446746
372,bocana de paiwas,12.7857,-85.1227,299.18,66,84,7.19,NI,1736446747
373,bucerias,20.75,-105.3333,298.14,73,100,2.57,MX,1736446733
374,bykhaw,53.5193,30.2469,274.26,93,99,6.91,BY,1736446749
375,veraval,20.9,70.3667,293.83,67,4,2.29,IN,1736446753
376,strezhevoy,60.7333,77.5889,250.98,100,91,3.49,RU,1736446754
377,wafangdian,39.6183,122.0081,263.84,51,0,1.68,CN,1736446755
378,haiku-pauwela,20.9219,-156.3051,295.47,82,87,5.36,US,1736446757
379,tomatlan,19.9333,-105.25,295.93,71,100,0.39,MX,1736446758
380,kangding,30.0513,101.9603,269.19,94,97,0.8,CN,1736446759
381,melo,-32.3667,-54.1833,303.66,30,1,6.02,UY,1736446760
382,libenge,3.65,18.6333,300.51,21,72,1.13,CD,1736446761
383,san antonio de pale,-1.4014,5.6325,300.27,81,37,4.16,GQ,1736446762
384,crucecita,-28.95,-58.9833,309.55,17,2,3.93,AR,1736446763
385,aykhal,66.0,111.5,250.87,100,100,1.58,RU,1736446764
386,de aar,-30.6497,24.0123,303.05,17,2,2.5,ZA,1736446766
387,kill devil hills,36.0307,-75.676,275.16,40,0,6.17,US,1736446767
388,kolobrzeg,54.1757,15.5834,273.13,85,94,6.56,PL,1736446768
389,labytnangi,66.6572,66.4183,260.21,96,100,4.87,RU,1736446769
390,"laikit, laikit ii (dimembe)",1.4792,124.9735,295.36,97,97,0.9,ID,1736446770
391,sona,45.4388,10.8255,280.29,100,75,2.06,IT,1736446771
392,bamyan,34.75,67.25,259.17,37,86,2.86,AF,1736446772
393,kupang,-10.1667,123.5833,298.47,100,75,0.0,ID,1736446774
394,ina,35.8276,137.9538,267.85,77,80,3.79,JP,1736446775
395,manta,-0.95,-80.7333,299.54,78,100,3.92,EC,1736446675
396,lesosibirsk,58.2358,92.4828,260.59,92,100,3.64,RU,1736446777
397,jilin,43.0,126.0,254.67,99,99,1.29,CN,1736446778
398,raton,36.9034,-104.4391,269.49,63,100,14.92,US,1736446779
399,sawankhalok,17.316,99.8319,295.68,56,5,1.68,TH,1736446780
400,tazovsky,67.4667,78.7,247.59,100,88,3.58,RU,1736446782
401,minab,27.1467,57.0801,292.35,26,13,5.67,IR,1736446783
402,novyy urengoy,66.0833,76.6333,251.26,100,91,5.01,RU,1736446784
403,caconda,-13.7333,15.0667,291.54,70,42,2.41,AO,1736446785
404,corner brook,48.9667,-57.9484,274.26,97,100,1.24,CA,1736446786
405,wapi pathum,15.8452,103.3768,292.98,72,48,6.89,TH,1736446787
406,tibati,6.4667,12.6333,298.57,20,49,3.19,CM,1736446789
407,mammoth lakes,37.6485,-118.9721,277.79,9,0,5.66,US,1736446791
408,baotou,40.6522,109.8222,264.61,31,100,0.24,CN,1736446624
409,wiradesa,-6.8922,109.619,298.51,89,99,1.83,ID,1736446793
410,plastun,44.7561,136.2939,259.87,65,100,5.55,RU,1736446794
411,chinde,26.8212,87.7095,285.43,70,1,2.61,NP,1736446795
412,nantucket,41.2835,-70.0995,271.21,46,100,8.23,US,1736446796
413,ratnagiri,16.9833,73.3,296.09,53,27,1.34,IN,1736446798
414,la passe,45.5549,-0.8967,281.92,70,98,2.8,FR,1736446799
415,vila do maio,15.1333,-23.2167,297.06,68,0,5.93,CV,1736446800
416,dalandzadgad,43.5708,104.425,262.86,74,36,0.7,MN,1736446801
417,knyaze-volkonskoye,48.4642,135.4567,260.34,94,100,2.56,RU,1736446802
418,port lincoln,-34.7333,135.8667,290.52,83,30,4.31,AU,1736446803
419,fallon,39.4735,-118.7774,274.88,77,0,1.54,US,1736446804
420,morehead city,34.7229,-76.726,276.51,40,0,4.02,US,1736446805
421,nar'yan-mar,67.6713,53.087,265.69,95,100,5.29,RU,1736446807
422,sena madureira,-9.0656,-68.6569,296.68,99,100,0.74,BR,1736446808
423,sydney,-33.8679,151.2073,293.55,88,75,2.57,AU,1736446668
424,brookings,44.3114,-96.7984,272.69,87,100,9.77,US,1736446552
425,el salto,20.3333,-104.5,289.56,62,99,2.37,MX,1736446811
426,zamora,-4.0692,-78.9567,301.93,58,100,0.4,EC,1736446812
427,kolonia,50.9333,6.95,274.51,92,75,4.12,DE,1736446798
428,leava,-14.3,-178.1667,299.61,91,100,16.3,WF,1736446814
429,staraya russa,57.9944,31.3608,272.17,91,100,3.59,RU,1736446772
430,katsuren-haebaru,26.3369,127.8719,288.16,56,100,6.69,JP,1736446817
431,amahai,-3.3333,128.9167,299.45,83,100,1.7,ID,1736446818
432,vorkuta,67.5,64.0,258.61,84,100,6.64,RU,1736446528
433,santa sylvina,-27.8326,-61.1375,311.3,13,21,4.61,AR,1736446820
434,pontes e lacerda,-15.2261,-59.3353,300.81,80,100,3.18,BR,1736446598
435,shingu,33.7333,135.9833,272.74,77,9,4.62,JP,1736446822
436,glace bay,46.1969,-59.957,275.36,85,75,4.63,CA,1736446823
437,san julian,21.0167,-102.1667,292.01,46,97,9.44,MX,1736446825
438,castillos,-34.1667,-53.8333,299.89,43,73,6.02,UY,1736446826
439,kokopo,-4.352,152.2633,299.49,84,77,3.23,PG,1736446827
440,tughyl,47.7252,84.2063,262.85,90,100,1.02,KZ,1736446829
441,aguada de pasajeros,22.385,-80.8508,295.81,51,41,5.22,CU,1736446544
442,vikulovo,56.8167,70.6107,270.29,95,100,6.82,RU,1736446832
443,bikin,46.8161,134.26,260.38,91,100,3.53,RU,1736446833
444,sabang,5.8933,95.3214,302.02,67,61,7.55,ID,1736446834
445,lienz,46.8289,12.769,278.29,100,100,2.15,AT,1736446835
446,klaksvik,62.2266,-6.589,275.04,59,100,6.81,FO,1736446836
447,muisne,0.6,-80.0333,299.11,82,100,4.77,EC,1736446838
448,saint-louis,16.3333,-15.0,305.51,11,0,4.47,SN,1736446839
449,novaya igirma,57.1334,103.9112,262.54,97,100,1.45,RU,1736446840
450,vilyuchinsk,52.9306,158.4028,259.3,78,6,4.12,RU,1736446841
451,mineros,-17.1167,-63.2333,304.42,55,95,3.69,BO,1736446664
452,jindabyne,-36.4167,148.6333,287.36,92,100,0.45,AU,1736446843
453,dhuusamarreeb,5.535,46.3861,299.22,49,69,7.56,SO,1736446844
454,feijo,-8.1642,-70.3536,299.38,79,100,2.19,BR,1736446845
455,ornskoldsvik,63.2909,18.7153,267.68,93,100,3.09,SE,1736446847
456,trinity beach,-16.7888,145.6968,297.09,94,40,0.0,AU,1736446848
457,buka,40.8108,69.1986,272.86,40,0,1.2,UZ,1736446849
458,saint-joseph,-21.3667,55.6167,299.36,82,17,5.18,RE,1736446850
459,homer,59.6425,-151.5483,274.13,87,100,6.17,US,1736446852
460,kitui,-1.367,38.0106,293.54,76,85,1.49,KE,1736446853
461,palmerston,-12.486,130.9833,299.2,90,20,0.51,AU,1736446854
462,dombarovskiy,50.7587,59.5386,266.54,73,56,7.63,RU,1736446855
463,yarmouth,41.7057,-70.2286,271.53,67,100,12.52,US,1736446856
464,hobyo,5.3505,48.5268,297.97,75,25,7.88,SO,1736446858
465,neiafu,-18.65,-173.9833,298.53,88,100,2.06,TO,1736446859
466,kenai,60.5544,-151.2583,275.45,96,100,10.8,US,1736446860
467,conduaga,8.862,117.4893,298.54,87,61,0.84,PH,1736446861
468,sorgun,39.8101,35.186,278.17,65,4,1.57,TR,1736446862
469,santa ana de yacuma,-13.75,-65.4333,297.12,100,100,3.09,BO,1736446863
470,anupgarh,29.1911,73.2086,289.0,20,2,3.45,IN,1736446864
471,mugia,43.1041,-9.2179,288.1,93,97,8.97,ES,1736446865
472,bikenibeu village,1.3673,173.1241,300.13,89,20,2.57,KI,1736446867
473,port hedland,-20.3167,118.5667,304.18,74,80,3.6,AU,1736446868
474,musafir-khana,26.3667,81.8,284.77,54,2,1.57,IN,1736446869
475,saudarkrokur,65.7461,-19.6394,264.55,81,74,7.61,IS,1736446870
476,altay,47.8667,88.1167,257.89,84,98,2.35,CN,1736446623
477,hasaki,35.7333,140.8333,277.66,31,98,11.87,JP,1736446873
478,celestun,20.8667,-90.4,298.85,51,38,2.83,MX,1736446875
479,kiunga,-6.1219,141.2906,296.12,99,99,0.28,PG,1736446876
480,mahdia,35.5047,11.0622,289.71,45,58,2.32,TN,1736446878
481,awjilah,29.1081,21.2869,287.17,54,0,3.71,LY,1736446879
482,qacha's nek,-30.1154,28.6894,292.88,45,48,1.19,LS,1736446881
483,kawm umbu,24.4767,32.9463,292.93,32,100,3.16,EG,1736446882
484,naracoorte,-36.9579,140.7383,292.08,62,73,1.4,AU,1736446883
485,black river,18.0264,-77.8487,301.07,58,86,3.4,JM,1736446884
486,pimentel,-6.8367,-79.9342,300.31,57,0,9.77,PE,1736446885
487,jardim de piranhas,-6.3786,-37.3519,310.02,27,55,7.36,BR,1736446886
488,wynyard,-41.0,145.7167,288.81,88,100,4.47,AU,1736446895
489,lerwick,60.1545,-1.1494,277.28,58,84,10.21,GB,1736446896
490,broken hill,-31.95,141.4333,296.68,43,1,4.73,AU,1736446897
491,lilongwe,-13.9669,33.7873,292.37,97,100,3.24,MW,1736446898
492,galveston,29.3669,-94.9669,283.12,86,100,9.33,US,1736446901
493,sao vicente,-23.9631,-46.3919,298.12,26,71,2.24,BR,1736446902
494,hood river,45.7054,-121.5215,276.37,92,100,3.09,US,1736446903
495,rikaze,29.25,88.8833,270.54,15,1,1.58,CN,1736446904
496,coruripe,-10.1256,-36.1756,302.47,58,54,7.7,BR,1736446905
497,tonya,40.8862,39.2924,278.2,77,2,2.58,TR,1736446906
498,saint-pierre,-21.3393,55.4781,299.97,69,0,6.17,RE,1736446907
499,alice springs,-23.7,133.8833,296.9,46,98,0.0,AU,1736446786
500,balykshi,47.0667,51.8667,270.15,86,65,5.0,KZ,1736446910
501,pembroke,45.8168,-77.1162,265.47,65,76,5.66,CA,1736446911
502,harper,4.375,-7.7169,300.77,73,93,4.71,LR,1736446912
503,rio grande,-32.035,-52.0986,297.47,56,9,6.42,BR,1736446914
504,hilo,19.7297,-155.09,295.65,99,100,3.09,US,1736446915
505,ust'-barguzin,53.45,108.9833,251.52,97,57,1.87,RU,1736446916
506,shiprock,36.7855,-108.687,274.99,43,58,3.89,US,1736446918
507,trincomalee,8.5711,81.2335,299.04,85,49,7.35,LK,1736446919
508,volnovakha,47.601,37.4967,279.23,91,86,2.56,UA,1736446920
509,coahuayana de hidalgo,18.7,-103.6583,302.5,48,86,1.76,MX,1736446921
510,oppdal,62.5943,9.6912,260.96,87,50,3.72,NO,1736446922
511,odda,60.0691,6.5457,265.08,85,48,3.16,NO,1736446923
512,sv. ana v slov. goricah,46.6492,15.8442,284.73,83,100,5.26,SI,1736446924
513,jinka,5.65,36.65,294.16,43,66,0.76,ET,1736446925
514,cockburn town,21.4612,-71.1419,297.06,69,81,6.8,TC,1736446705
515,nuku'alofa,-21.1333,-175.2,297.34,78,75,5.14,TO,1736446928
516,paka,4.6374,103.4368,298.14,83,100,1.03,MY,1736446929
517,tsiombe,-25.3,45.4833,298.59,83,64,1.72,MG,1736446930
518,galesong,-5.3166,119.3661,299.9,80,80,2.32,ID,1736446931
519,karamay,45.6004,84.8661,263.75,81,13,0.66,CN,1736446932
520,otjimbingwe,-22.35,16.1333,299.07,31,86,6.91,NA,1736446933
521,qinhuangdao,39.9317,119.5883,267.14,31,0,2.05,CN,1736446935
522,guerrero negro,27.9769,-114.0611,290.57,41,0,4.25,MX,1736446760
523,sibut,5.718,19.0739,301.35,19,76,1.46,CF,1736446937
524,ashland,40.8167,-82.2665,267.74,88,12,4.17,US,1736446941
525,ishigaki,24.3448,124.1572,287.22,82,100,5.66,JP,1736446942
526,kayangel,8.0823,134.7173,301.85,74,54,9.9,PW,1736446943
527,mwanza,-2.5167,32.9,296.39,59,45,1.36,TZ,1736446945
528,gillette,44.2911,-105.5022,270.99,80,0,5.81,US,1736446946
529,carsamba,41.1989,36.7219,280.01,81,0,0.0,TR,1736446947
530,korla,41.7597,86.1469,266.25,86,73,0.52,CN,1736446948
531,um jar al gharbiyya,13.8013,32.4078,298.6,19,0,4.76,SD,1736446950
532,pionerskiy,54.9508,20.2275,274.06,99,100,4.9,RU,1736446951
533,lompoc,34.6391,-120.4579,290.45,21,0,0.0,US,1736446738
534,notre dame,-20.1406,57.5531,299.91,80,9,7.15,MU,1736446955
535,wapakoneta,40.5678,-84.1936,270.17,67,0,0.0,US,1736446956
536,monopoli,40.9559,17.2896,286.71,74,97,5.75,IT,1736446958
537,santiago de cao,-7.9589,-79.2392,293.22,83,75,5.14,PE,1736446959
538,novodvinsk,64.4165,40.8122,269.01,94,100,6.92,RU,1736446716
539,ketchikan,55.3422,-131.6461,282.95,88,100,10.29,US,1736446799
540,lichuan,30.3,108.85,271.79,92,98,0.7,CN,1736446832
541,rongelap,11.1635,166.8941,300.46,80,15,10.57,MH,1736446964
542,ekibastuz,51.6667,75.3667,267.29,73,100,8.56,KZ,1736446965
543,mogadishu,2.0371,45.3438,298.09,80,93,8.91,SO,1736446967
544,oistins,13.0667,-59.5333,302.2,54,40,2.57,BB,1736446968
545,hassi messaoud,31.6804,6.0729,287.07,35,0,2.06,DZ,1736446969
546,ulladulla,-35.35,150.4667,291.03,95,99,3.01,AU,1736446970
547,taoudenni,22.6783,-3.9836,293.5,14,3,4.67,ML,1736446972
548,port-cartier,50.0334,-66.8654,276.2,72,100,7.52,CA,1736446793
549,magdagachi,53.45,125.8,248.48,93,13,1.82,RU,1736446975
550,rawson,-43.3002,-65.1023,292.31,34,0,7.72,AR,1736446976
551,mandal,25.45,74.5667,286.68,41,4,2.73,IN,1736446977
552,sampit,-2.5333,112.95,297.16,98,83,1.0,ID,1736446978
553,kwang binh,17.4833,106.6,292.21,90,97,6.85,VN,1736446979
554,cill airne,52.05,-9.5167,272.18,100,0,1.54,IE,1736446980
555,thief river falls,48.1191,-96.1812,269.11,93,100,3.6,US,1736446982
556,monrovia,6.3005,-10.7969,301.36,75,79,4.47,LR,1736446719
557,el charco,2.4769,-78.1105,299.16,90,98,3.68,CO,1736446984
558,bubaque,11.2833,-15.8333,299.06,73,22,6.21,GW,1736446985
559,barra,-11.0894,-43.1417,301.73,58,84,2.7,BR,1736446986
560,villa emilio carranza,19.9667,-96.6,292.96,73,90,3.39,MX,1736446987
561,cosala,24.4125,-106.6908,288.58,87,100,1.66,MX,1736446989
562,ojinaga,29.5667,-104.4167,281.25,52,40,1.54,MX,1736446990
563,ad dabbah,18.05,30.95,294.52,23,12,4.41,SD,1736446991
564,igrim,63.1906,64.4162,262.2,95,100,4.4,RU,1736446992
565,neuville-sur-saone,45.877,4.8492,281.04,79,75,11.32,FR,1736446993
